DISTRICT,COUNTY,LATITUDE,LONGITUDE,OWNERSHIP,LOAD_RATING_AGENCY,BRIDGE_ID,OWNER,ADMINAREA,RATINGDATE,DECK_AREA,GFP,NHS,STATE_LOCAL,DECADE,SS_CODE,DECK_RATING,SUB_RATING,SUPER_RATING,ADT,FACILITY_CARRIED,FEATURE_INTERSECT,BRIDGE_DESCRIPTION,POSTED,GROSS_POSTING,SERVICE_ON,SERVICE_UNDER
District 04,Hardin,37.716616,-85.747836,County,KYTC,047C00095N,02,3,2021-08-24,720.0,Good,No,Local,2020s,,8,7,8,127.0,Miller Road,Trib. of Youngers Creek,,"A Open, no restriction",,1 Highway,5 Waterway
District 04,Nelson,37.911944444,-85.318333333,KYTC,KYTC,090B00125N,01,3,2022-10-12,2739.0,Good,No,State,2020s,State Secondary,7,8,8,3685.0,KY 48,E. Fork of Simpson Creek,,"A Open, no restriction",,1 Highway,5 Waterway
District 04,Marion,37.557165991,-85.416796606,County,KYTC,078C00129N,02,3,2012-11-13,554.0,Good,No,Local,2000s,,7,7,7,56.0,J E BICKETT RD,CHERRY CREEK,B4   1 - 36 STEEL STRINGER SPAN,"A Open, no restriction",,1 Highway,5 Waterway
District 04,Marion,37.58464631,-85.402448454,County,KYTC,078C00119N,02,3,2024-08-20,800.0,Good,No,Local,1990s,,7,7,7,223.0,WIMSATT RD,TRIB-PRATHER CREEK,1- 50        FT PRESTRESSED CONC  BOX BEAM SPAN,"A Open, no restriction",,1 Highway,5 Waterway
District 04,Grayson,37.433888889,-86.157777778,County,KYTC,043C00065N,02,3,2020-07-20,1024.0,Good,No,Local,2020s,,9,8,9,30.0,Horntown Road,Rock Creek,1-67' Side by side PC Box girder span with RC Deck,"A Open, no restriction",,1 Highway,5 Waterway
District 04,Nelson,37.912222222,-85.317222222,KYTC,KYTC,090B00124N,01,3,2021-04-01,964.1,Good,No,State,2020s,State Secondary,N,N,N,3862.0,US 62,Hinkle Creek,1- 6.5' X 17.5' X42' RC Box Culvert,"A Open, no restriction",,1 Highway,5 Waterway
District 04,Taylor,37.341944444,-85.338333333,City,KYTC,109C00075N,04,3,2020-04-10,760.0,Good,No,Local,2020s,,8,8,8,1356.0,South Jackson St.,Buckhorn Creek,1-38' P C Box beam span,"A Open, no restriction",,1 Highway,5 Waterway
District 04,Hardin,37.634722222,-86.149722222,County,KYTC,047C00094N,02,3,2021-05-17,1848.0,Fair,No,Local,1980s,,8,6,8,35.0,Laurel Ridge Rd.,Linders Creek,1-77' PPC Box girder span,"A Open, no restriction",,1 Highway,5 Waterway
District 04,Taylor,37.339722222,-85.346388889,KYTC,KYTC,109B00065N,01,3,2024-02-06,1070.0,Good,No,State,Over 100,Rural Secondary,7,7,8,4242.0,KY 323 West Main,Buckhorn Creek,,"A Open, no restriction",,1 Highway,5 Waterway
District 04,Washington,37.7125,-85.186388889,County,KYTC,115C00082N,02,3,2024-11-28,498.0,Good,No,Local,2020s,,7,7,7,,Spaulding Lane,Unnamed stream,,"A Open, no restriction",,1 Highway,5 Waterway
District 04,Nelson,37.942222222,-85.465,KYTC,KYTC,090B00120N,01,3,2023-01-08,7261.0,Good,No,State,2010s,State Primary (Other),7,8,8,7690.0,US 31E,Whitesides Road,,"A Open, no restriction",,1 Highway,1 Highway
District 04,Hardin,37.6675,-85.7325,County,KYTC,047C00093N,02,3,2018-06-02,700.0,Good,No,Local,2010s,,8,7,7,54.0,_Union Church RD,_Middle Creek,,"A Open, no restriction",,1 Highway,5 Waterway
District 04,Nelson,37.671894,-85.577303,County,KYTC,090C00078N,02,3,2018-08-06,828.0,Fair,No,Local,2010s,,6,7,6,53.0,HIGDON LOOP,DAVIS RUN,,"A Open, no restriction",,1 Highway,5 Waterway
District 04,Washington,37.684166667,-85.222777778,KYTC,CONTRACTOR,115B00073N,01,3,2023-09-20,1776.0,Good,No,State,Over 100,State Secondary,8,7,7,3286.0,KY 528,Road Run Branch,,"A Open, no restriction",,1 Highway,5 Waterway
District 04,Taylor,37.405850576,-85.387678884,KYTC,KYTC,109B00060N,01,3,2023-11-29,600.0,Fair,No,State,2000s,Rural Secondary,6,7,8,1131.0,KY-527,FLAT RUN CREEK,1-25 FT. P.P.C.D.U. SPAN,"A Open, no restriction",,1 Highway,5 Waterway
District 04,Taylor,37.358616774,-85.224106505,KYTC,KYTC,109B00061N,01,3,2023-09-21,2774.0,Good,No,State,2000s,State Secondary,7,7,8,1632.0,KY-70,DUTTONS CREEK,1-65 FT. PPC BOX BEAM WITH CONC DECK,"A Open, no restriction",,1 Highway,5 Waterway
District 04,Taylor,37.370784392,-85.402744364,County,CONTRACTOR,109C00011N,02,3,2020-11-02,454.98,Fair,No,Local,1970s,,N,N,N,201.0,NOE RD,FLAT RUN,2-14 FT X 8.3 FT X 48.5 FT BC MULTI-PLATE ARCH SPANS,P Posted for load,18.0,1 Highway,5 Waterway
District 04,Taylor,37.339338675,-85.342911477,City,KYTC,109C00025N,04,3,2025-08-05,741.0,Poor,No,Local,1960s,,4,5,5,134.0,COURT ST,BUCKHORN CREEK,12.8 FT-15 FT RAILROAD RAILS ENCASED IN CONCRETE SPAN,P Posted for load,24.0,1 Highway,5 Waterway
District 04,Taylor,37.343103414,-85.336255607,City,KYTC,109C00027N,04,3,2022-03-10,437.0,Fair,No,Local,1950s,,6,6,6,118.0,DURHAM ST,BUCKHORN CREEK,1-20 FT. RAILROAD RAIL RALL SPAN,P Posted for load,6.0,1 Highway,5 Waterway
District 04,Taylor,37.438057537,-85.564550474,County,KYTC,109C00030N,02,3,2019-10-30,1398.96,Fair,No,Local,1950s,,N,N,N,67.0,POPULAR GROVE RD,POPLAR GROVE BRANCH,DOUBLE 14 FT X 7 FT X 34 FT R.C. CULVERT - 45 DEG SKEW,"A Open, no restriction",,1 Highway,5 Waterway
District 04,Taylor,37.338716122,-85.362287776,City,KYTC,109C00032N,04,3,2016-06-16,1575.45,Fair,No,Local,1980s,,N,N,N,132.0,OLD GREENSBURG RD,BUCKHORN CREEK,TRI 11 X 7 RC BOX CULVERT- 45 DEG SKEW,"A Open, no restriction",,1 Highway,5 Waterway
District 04,Taylor,37.433955618,-85.304275284,County,KYTC,109C00034N,02,3,2023-11-29,576.0,Good,No,Local,1990s,,7,7,7,51.0,PITMAN CREEK RD,PITMAN CREEK,1-23 FT PREST CONC DECK UNIT,"A Open, no restriction",,1 Highway,5 Waterway
District 04,Taylor,37.411811272,-85.13163268,County,KYTC,109C00035N,02,3,2023-11-29,1920.0,Fair,No,Local,1990s,,6,6,7,282.0,MERRIMAC RD,ROBINSON CREEK,1-77 FT PREST CONC BOX BEAM SPAN,"A Open, no restriction",,1 Highway,5 Waterway
District 04,Taylor,37.335899791,-85.169216501,County,KYTC,109C00046N,02,3,2023-11-29,480.0,Good,No,Local,1990s,,7,7,7,10.0,MALONE RD OTHER,STONER CREEK,1-30 FT. PRESTRESSED CONC BOX BEAM SPANS PPCDU,"A Open, no restriction",,1 Highway,5 Waterway
District 04,Taylor,37.426500886,-85.479229119,County,KYTC,109C00047N,02,3,2023-11-29,953.0,Good,No,Local,2000s,,7,7,7,36.0,Dotson Rd.,MILL CREEK,1-58 FT. PRESTRESSED CONC BOX BEAM SPANS(PPCDU),"A Open, no restriction",,1 Highway,5 Waterway
District 04,Taylor,37.309571815,-85.397581039,County,KYTC,109C00048N,02,3,2024-04-25,1200.0,Fair,No,Local,2000s,,5,7,5,,DAVIS RD,MEADOW CREEK,1 1-50 FT. PRESTRESSED CONC BOX BEAM SPAN PPCDU,"A Open, no restriction",,1 Highway,5 Waterway
District 04,Taylor,37.27376425,-85.412038491,County,KYTC,109C00050N,02,3,2022-08-04,362.0,Good,No,Local,2000s,,7,7,7,44.0,ROCKY TOP TRL,MEADOW CREEK,1- 30 FT STEEL STRINGER SPAN,P Posted for load,27.0,1 Highway,5 Waterway
District 04,Taylor,37.449021139,-85.382111987,County,KYTC,109C00052N,02,3,2023-11-29,1200.0,Good,No,Local,2000s,,7,7,7,76.0,FEATHERCREEK RD,BIG PITMAN CREEK,1 - 50 PRECAST BOX BEAM SPAN B6,"A Open, no restriction",,1 Highway,5 Waterway
District 04,Taylor,37.2839779,-85.228028553,County,KYTC,109C00054N,02,3,2023-11-29,1150.0,Fair,No,Local,2000s,,7,6,7,43.0,WILSON CREEK RD,WILSON CREEK,1 - 48 PPCDU BOX SPAN,"A Open, no restriction",,1 Highway,5 Waterway
District 04,Taylor,37.36155,-85.355667,City,KYTC,109C00055N,04,3,2022-02-11,570.0,Good,No,Local,2000s,,7,7,8,128.0,WEDGEWOOD DR,PITMAN CREEK,1-26 STEEL BEAM SPAN,P Posted for load,27.0,1 Highway,5 Waterway
District 04,Washington,37.717777778,-85.069722222,County,KYTC,115C00081N,02,3,2020-07-09,378.0,Fair,No,Local,1970s,,5,6,6,,Powell Lane,Long Lick Creek,2 simple steel girder spans w 6' concrete deck,P Posted for load,15.0,1 Highway,5 Waterway
District 04,Green,37.151666667,-85.561111111,KYTC,KYTC,044B00046N,01,3,2024-02-05,1848.0,Good,No,State,2020s,State Secondary,8,7,7,784.0,_US-68,_GREASY CREEK,1-66 FT Box beam 30 DEG skew,"A Open, no restriction",,1 Highway,5 Waterway
District 04,Hardin,37.674196728,-85.886988427,County,KYTC,047C00067N,02,3,2023-05-15,1847.0,Fair,No,Local,1980s,,6,7,5,538.0,GAITHER STATION RD,VALLEY CREEK,1-75 PRECAST BOX BEAM SPAN,"A Open, no restriction",,1 Highway,5 Waterway
District 04,Hardin,37.734683692,-86.092760194,County,KYTC,047C00068N,02,3,2024-05-16,549.0,Fair,No,Local,1990s,,7,6,7,40.0,MEREDITH RD,MAYS RUN,1-31 FT PREST CONC DECK UNIT,"A Open, no restriction",,1 Highway,5 Waterway
District 04,Hardin,37.818242043,-86.006750151,County,KYTC,047C00061N,02,3,2016-05-18,682.0,Fair,No,Local,1980s,,6,6,5,,DITTO LN,BRUSH FORK,1-29 FT STEEL STRINGER SPAN,"A Open, no restriction",,1 Highway,5 Waterway
District 04,Breckinridge,37.951624182,-86.497201583,KYTC,KYTC,014B00017N,01,3,2023-11-13,548.19,Poor,No,State,Over 75,Rural Secondary,N,N,N,75.0,KY-259,LICK RUN CREEK,TRPL 10X10X81 RC CLVT -15 FT FILL,P Posted for load,10.0,1 Highway,5 Waterway
District 04,Taylor,37.382229,-85.380876,County,KYTC,109C00071N,02,3,2024-08-23,1200.0,Good,No,Local,2000s,,7,7,7,,Salem Church Rd,Middle Pitman Creek,1-50' PPCDU Span,"A Open, no restriction",,1 Highway,5 Waterway
District 04,Hart,37.243955251,-85.926993249,KYTC,KYTC,050B00044N,01,3,2024-12-09,9765.0,Fair,No,State,2000s,,6,7,6,186.0,Cave Springs Rd,I-65,2-112.5 & 2-43.5 PCI BEAM SPANS,"A Open, no restriction",,1 Highway,1 Highway
District 04,Hart,37.423426808,-85.805929648,County,CONTRACTOR,050C00004N,02,3,2022-08-03,614.0,Fair,No,Local,1960s,,6,7,5,96.0,LATON TURNER ROAD,BR OF BACON CREEK,2-15.8 FT SPANS CONTINUOUS STEEL I BEAMS AND CHANNELS,P Posted for load,15.0,1 Highway,5 Waterway
District 04,Hart,37.317858893,-86.030307179,County,KYTC,050C00011N,02,3,2022-05-23,282.0,Fair,No,Local,1970s,,5,5,5,30.0,CANE RUN CHURCH RO,CANE RUN,1-22.5 FT. STEEL I-BEAM SPAN - 0 DEG SKEW,P Posted for load,10.0,1 Highway,5 Waterway
District 04,Hart,37.348798561,-86.012689323,County,KYTC,050C00012N,02,3,2019-07-10,851.0,Fair,No,Local,1970s,,5,6,6,189.0,CAVE HILL ROAD,BACON CREEK,1-39.5 FT SPAN STEEL WF BEAMS,P Posted for load,14.0,1 Highway,5 Waterway
District 04,Hart,37.406142604,-85.849722006,County,KYTC,050C00024N,02,3,2016-05-31,1242.0,Fair,No,Local,1990s,,6,7,6,93.0,WABASH ROAD,BACON CREEK,16 -32 -16 FT TIMBER  BEAM SPANS,P Posted for load,22.0,1 Highway,5 Waterway
District 04,Hart,37.399783994,-85.859522228,County,KYTC,050C00025N,02,3,2024-05-16,736.0,Good,No,Local,1990s,,7,7,8,20.0,MERL REYNOLDS ROAD,BACON CREEK,1-44.5 PREST CONC BOX BEAM SPANS,"A Open, no restriction",,1 Highway,5 Waterway
District 04,Hart,37.394586978,-85.755098009,County,KYTC,050C00026N,02,3,2024-05-16,936.0,Good,No,Local,1990s,,7,7,7,93.0,PIKEVIEW ROAD,LOCUST BRANCH,1-39 FT PREST CONC BOX BEAM SPANS,"A Open, no restriction",,1 Highway,5 Waterway
District 04,Breckinridge,37.707787325,-86.347030834,KYTC,KYTC,014B00025N,01,3,2022-04-12,2802.0,Good,No,State,1960s,Supplemental Road,7,7,7,347.0,KY-1073,NORTH FORK OF ROUGH RIVE,3-35 FT R.C.D.G. SPANS,P Posted for load,,1 Highway,5 Waterway
District 04,Hardin,37.494722222,-85.992777778,KYTC,KYTC,047B00187N,01,3,2023-09-20,728.0,Good,No,State,2010s,Rural Secondary,8,7,7,120.0,KY 2800,Sandy Creek,"1- 32' Spread PC Box beam span w 5"" R/C deck","A Open, no restriction",,1 Highway,5 Waterway
District 04,Marion,37.610575,-85.084936,County,KYTC,078C00150N,02,3,2018-06-12,651.0,Good,No,Local,2010s,,8,8,8,87.0,Beech Fork Rd.,Beech Fork,1-Single Span Steel Girder Structure,"A Open, no restriction",,1 Highway,5 Waterway
District 04,Green,37.17,-85.435277778,County,KYTC,044C00046N,02,3,2020-07-23,3360.0,Fair,No,Local,2020s,,6,8,6,,Russell Creek Road,Russell Creek,3-PPC box spans 40'-60'-40',"A Open, no restriction",,1 Highway,5 Waterway
District 04,Washington,37.811665,-85.047501,County,KYTC,115C00079N,02,3,2024-11-28,452.0,Good,No,Local,2010s,,8,7,8,,Glens Creek Rd.,Trib to Glens Creek,1-22.5' R/C Slab span,"A Open, no restriction",,1 Highway,5 Waterway
District 04,Taylor,37.45141952,-85.419058159,KYTC,KYTC,109B00027N,01,3,2022-08-03,1404.0,Fair,No,State,Over 75,Rural Secondary,N,N,N,442.0,KY-527,WILLOWTOWN CREEK,TRPL 10X8X31 RC CLVT -1.5 FT FILL                    W,P Posted for load,22.0,1 Highway,5 Waterway
District 04,Larue,37.586359666,-85.676840795,KYTC,KYTC,062B00005N,01,3,2016-09-09,1008.0,Fair,No,State,Over 75,State Primary (Other),N,N,N,2628.0,US-31E,BR OF NORTH FORK NOLIN,DBL 8X4X42 RC CLVT -2 FT FILL,"A Open, no restriction",,1 Highway,5 Waterway
District 04,Larue,37.558926114,-85.788174254,KYTC,KYTC,062B00018N,01,3,2025-06-18,4121.0,Fair,No,State,1960s,Rural Secondary,6,6,6,76.0,KY-222,NORTH FORK NOLIN RIVER,3-50 FT R.C.D.G. SPANS - 30 DEG SKEW,"A Open, no restriction",,1 Highway,5 Waterway
District 04,Larue,37.573982987,-85.610140024,KYTC,KYTC,062B00019N,01,3,2017-10-17,1289.0,Good,No,State,Over 75,Rural Secondary,N,N,N,809.0,KY-84,HOWARDS CREEK,TRPL 12X6X40 RC CLVT -2 FT FILL                      W,"A Open, no restriction",,1 Highway,5 Waterway
District 04,Larue,37.573476655,-85.618210012,KYTC,CONTRACTOR,062B00020N,01,3,2017-10-16,480.31,Fair,No,State,Over 75,Rural Secondary,N,N,N,809.0,KY-84,BRANCH HOWARDSCREEK,DBL 8X4X42 RC CLVT -3 FT FILL,"A Open, no restriction",,1 Highway,5 Waterway
District 04,Larue,37.547644623,-85.675584127,KYTC,KYTC,062B00022N,01,3,2019-10-30,1189.0,Good,No,State,1950s,Rural Secondary,N,N,N,1307.0,KY-470,MCDOUGAL CREEK,TRPL 14X10X27 RC CLVT -NO FILL,"A Open, no restriction",,1 Highway,5 Waterway
District 04,Larue,37.524142358,-85.691536565,KYTC,CONTRACTOR,062B00023N,01,3,2017-10-16,925.0,Good,No,State,1960s,Rural Secondary,N,N,N,980.0,KY-470,SOUTH FORK NOLIN RIVER,DBL 12X7X38 RC CLVT -2.5 FT FILL                     W,"A Open, no restriction",,1 Highway,5 Waterway
District 04,Larue,37.474746901,-85.741381342,KYTC,KYTC,062B00024N,01,3,2022-07-05,4267.0,Fair,No,State,1950s,State Secondary,6,6,6,2987.0,US-31E,WALTERS CREEK,3-40 FT R.C.D.G. SPANS - 30 DEG SKEW,"A Open, no restriction",,1 Highway,5 Waterway
District 04,Larue,37.506932522,-85.736542842,KYTC,KYTC,062B00025N,01,3,2025-08-26,5381.0,Fair,No,State,1950s,State Secondary,6,5,6,2987.0,US-31E,SOUTH FORK NOLIN RIVER,4-35 FT R.C.D.G. SPANS - 0 DEG SKEW,"A Open, no restriction",,1 Highway,5 Waterway
District 04,Larue,37.688526157,-85.63207776,KYTC,KYTC,062B00026N,01,3,2022-08-03,451.13,Fair,No,State,Over 75,Rural Secondary,N,N,N,883.0,KY-583,MURPHY CREEK,DBL 12X7X22 RC CLVT -2 FT FILL,P Posted for load,22.0,1 Highway,5 Waterway
District 04,Larue,37.693285945,-85.654916016,KYTC,KYTC,062B00027N,01,3,2022-08-03,880.0,Poor,No,State,Over 75,Rural Secondary,N,N,N,883.0,KY-583,CRADY CREEK,TRPL 12X6X22 RC CLVT -1 FT FILL,P Posted for load,22.0,1 Highway,5 Waterway
District 04,Larue,37.701975171,-85.661345857,KYTC,KYTC,062B00028N,01,3,2017-10-17,521.49,Good,No,State,Over 75,Rural Secondary,N,N,N,883.0,KY-583,EDLIN CREEK,DBL 12X8X28 RC CLVT -1.5 FT FILL,"A Open, no restriction",,1 Highway,5 Waterway
District 04,Larue,37.440386354,-85.778619158,KYTC,KYTC,062B00030N,01,3,2017-10-17,676.0,Fair,No,State,1950s,Rural Secondary,N,N,N,572.0,KY-1079,BACON CREEK,DBL 12X6X27 RC CLVT -3 FT FILL,"A Open, no restriction",,1 Highway,5 Waterway
District 04,Larue,37.52707051,-85.818991805,KYTC,KYTC,062B00031N,01,3,2022-06-20,2736.0,Fair,No,State,1950s,State Secondary,7,5,6,1416.0,KY-84,BARREN RUN CREEK,3-35 FT R.C.D.G. SPANS - 0 DEG SKEW,P Posted for load,,1 Highway,5 Waterway
District 04,Larue,37.575975221,-85.740207989,KYTC,KYTC,062B00034R,01,3,2022-07-05,9104.0,Poor,No,State,Over 75,Rural Secondary,7,5,4,7532.0,KY-210,NORTH FORK NOLIN RIVER,45 FT-50 FT-45 FT R.C.D.G. SPANS - 0 DEG SKEW,P Posted for load,,1 Highway,5 Waterway
District 04,Larue,37.542983742,-85.768615062,KYTC,KYTC,062B00035N,01,3,2024-11-07,7385.0,Fair,No,State,1970s,State Secondary,7,6,8,2551.0,KY-84,SOUTH FORK OF NOLIN RIVE,45-60-45 FT PCIB SPANS-O DEG SKEW,"A Open, no restriction",,1 Highway,5 Waterway
District 04,Larue,37.622016443,-85.62317148,KYTC,KYTC,062B00037N,01,3,2024-12-05,7062.0,Good,No,State,1980s,State Primary (Other),7,8,7,2105.0,US-31E,THOMPSON CREEK,50-60-50 PREST. CONC. I-BEAM SPANS,"A Open, no restriction",,1 Highway,5 Waterway
District 04,Larue,37.578199173,-85.753685696,KYTC,KYTC,062B00039L,01,3,2023-06-27,9214.0,Fair,No,State,1980s,State Primary (Other),7,6,7,5903.0,LINCOLN PARKWAY,NORTH FORK NOLIN RIVER,63 -63 -63 FT  P.C.I.B. SPANS,"A Open, no restriction",,1 Highway,5 Waterway
District 04,Hardin,37.703761996,-85.870760843,KYTC,KYTC,047B00139N,01,3,2021-12-13,1871.33,Good,No,State,1980s,State Secondary,N,N,N,16176.0,US-31W,FREEMAN CREEK,,"A Open, no restriction",,1 Highway,5 Waterway
District 04,Hardin,37.586587052,-85.841098519,KYTC,KYTC,047B00140N,01,3,2024-11-22,768.0,Fair,No,State,1980s,Rural Secondary,6,7,5,98.0,KY-222,PUP CREEK,1-32 PRECAST BOX BEAM SPAN PREST,P Posted for load,,1 Highway,5 Waterway
District 04,Hardin,37.611882744,-86.258904452,KYTC,KYTC,047B00141N,01,3,2023-06-27,6200.0,Good,No,State,1980s,State Secondary,7,7,7,125.0,KY-84,ROUGH RIVER,,"A Open, no restriction",,1 Highway,5 Waterway
District 04,Hardin,37.794801988,-85.918086525,KYTC,KYTC,047B00142L,01,3,2023-06-27,7072.0,Good,No,State,1980s,State Primary (Other),7,7,7,5713.0,JOE PRATHER HIGHWA,WILSON ROAD,,"A Open, no restriction",,1 Highway,1 Highway
District 04,Hardin,37.795003983,-85.918149396,KYTC,KYTC,047B00142R,01,3,2023-06-27,7072.0,Fair,No,State,1980s,State Primary (Other),6,6,7,5713.0,KY-313,WILSON ROAD,,"A Open, no restriction",,1 Highway,1 Highway
District 04,Hardin,37.681364634,-85.876893467,KYTC,KYTC,047B00143L,01,3,2025-03-18,6100.0,Fair,No,State,1980s,State Primary (Other),5,7,7,12797.0,US 62,VALLEY CREEK,2- 74 FT  P.C.I.B. SPANS,"A Open, no restriction",,1 Highway,5 Waterway
District 04,Hardin,37.681274797,-85.876756997,KYTC,KYTC,047B00143R,01,3,2025-03-18,6100.0,Fair,No,State,1980s,State Primary (Other),5,7,7,12797.0,US-62,VALLEY CREEK,2- 74 FT  P.C.I.B. SPANS,"A Open, no restriction",,1 Highway,5 Waterway
District 04,Hardin,37.67722849,-85.891329053,KYTC,KYTC,047B00144R,01,3,2025-03-18,5040.0,Fair,No,State,1980s,State Primary (Other),6,7,7,12505.0,US-62,BILLY CREEK,,"A Open, no restriction",,1 Highway,5 Waterway
District 04,Hardin,37.521926,-85.884816,KYTC,KYTC,047B00178N,01,3,2023-09-25,21173.0,Good,No,State,2010s,State Secondary,7,8,7,4085.0,KY 84,I-65,1-4 span 255' PCI Structure ,"A Open, no restriction",,1 Highway,1 Highway
District 04,Hardin,37.670877438,-85.913830544,KYTC,KYTC,047B00145N,01,3,2016-05-04,2795.64,Fair,No,State,1980s,State Secondary,N,N,N,9117.0,US-62,RELIEF WATERWAY,,"A Open, no restriction",,1 Highway,5 Waterway
District 04,Hardin,37.647269438,-85.952199379,KYTC,KYTC,047B00146L,01,3,2025-05-19,3841.0,Good,No,State,1990s,State Secondary,7,7,8,3041.0,U.S. 62,WEST RHUDES CREEK,,"A Open, no restriction",,1 Highway,5 Waterway
District 04,Hardin,37.647118199,-85.952010386,KYTC,KYTC,047B00146R,01,3,2025-05-19,3841.0,Good,No,State,1990s,State Secondary,7,7,8,3041.0,U.S. 62,WEST RHUDES CREEK,,"A Open, no restriction",,1 Highway,5 Waterway
District 04,Hardin,37.666410971,-85.957972055,KYTC,KYTC,047B00147N,01,3,2023-06-27,3015.0,Fair,No,State,1990s,State Secondary,6,7,7,3642.0,KY-86,WEST RHUDES CREEK,,"A Open, no restriction",,1 Highway,5 Waterway
District 04,Taylor,37.370555556,-85.445277778,County,KYTC,109C00074N,02,3,2022-08-03,536.0,Good,No,Local,2010s,,8,7,8,,Fallen Timber Rd.,Locust Lick Branch,,P Posted for load,18.0,1 Highway,5 Waterway
District 04,Hardin,37.698333333,-85.967222222,KYTC,CONTRACTOR,047B00184N,01,3,2020-09-30,769.5,Good,No,State,2010s,Rural Secondary,N,N,N,2048.0,KY 1357, Trib of Rhudes Creek,"2-96"" polymer coated steel elliptical pipes 45 deg skew","A Open, no restriction",,1 Highway,5 Waterway
District 04,Meade,38.033000693,-86.423856626,KYTC,KYTC,082B00004N,01,3,2022-07-07,1062.0,Fair,No,State,Over 75,Rural Secondary,6,6,6,330.0,KY-144,SPRING CREEK,1-50 FT R.C.D.G. SPAN,P Posted for load,,1 Highway,5 Waterway
District 04,Meade,37.997262079,-86.111690762,KYTC,KYTC,082B00005N,01,3,2022-07-07,5701.0,Fair,No,State,1960s,Rural Secondary,6,6,6,889.0,KY-933,SPILLWAY-DOE RUN DAM,4-52 FT R.C.D.G. SPANS-0 DEG SKEW,P Posted for load,,1 Highway,5 Waterway
District 04,Meade,38.054576585,-86.43463548,KYTC,KYTC,082B00011N,01,3,2022-06-16,3168.0,Fair,No,State,1950s,Rural Secondary,7,5,6,118.0,KY-230,SPRING CREEK,3-45 FT R.C.D.G. SPANS,P Posted for load,,1 Highway,5 Waterway
District 04,Meade,37.958311889,-86.121972625,KYTC,KYTC,082B00013N,01,3,2017-10-16,771.19,Good,No,State,1970s,State Primary (Other),N,N,N,7955.0,KY-1638,DOE RUN,DBL 14X7X200 RC CLVT -20 FT FILL,"A Open, no restriction",,1 Highway,5 Waterway
District 04,Meade,37.901641418,-86.025125035,KYTC,KYTC,082B00014N,01,3,2025-05-01,11862.0,Fair,No,State,1980s,State Primary (Other),7,6,7,6468.0,US-60,OTTER CREEK,100 - 100 - 45  CONT PCIB SPANS,"A Open, no restriction",,1 Highway,5 Waterway
District 04,Meade,37.894524578,-86.037534034,KYTC,KYTC,082B00015N,01,3,2024-11-19,3007.0,Good,No,State,1980s,State Primary (Other),7,7,7,6468.0,US-60,TANK TRAIL,1-49.5 FT. TYPE 2 PCIB SPAN,"A Open, no restriction",,1 Highway,0 Other
District 04,Meade,37.905048064,-86.018969148,KYTC,KYTC,082B00016N,01,3,2024-11-18,5018.0,Good,No,State,1980s,,7,7,7,12.0,PINWHEEL RD,US 60,40.5 - 98.5 - 40.5 CONC STRINGERS BLT FOR M-88 TANK,"A Open, no restriction",,1 Highway,1 Highway
District 04,Meade,37.818517954,-86.007387876,KYTC,KYTC,082B00018N,01,3,2023-09-25,7374.0,Fair,No,State,1990s,State Secondary,6,7,7,2080.0,KY-144,OTTER CREEK,30-68-68 CONT PCIB SPANS,"A Open, no restriction",,1 Highway,5 Waterway
District 04,Meade,37.922594438,-86.030383172,KYTC,KYTC,082B00019N,01,3,2025-02-26,16778.0,Fair,No,State,1990s,State Primary (Other),6,7,8,8915.0,KY-1638,OTTER CREEK,5-100 FT CONT PCIB SPANS,"A Open, no restriction",,1 Highway,5 Waterway
District 04,Meade,38.016660878,-86.197324578,KYTC,CONTRACTOR,082B00021N,01,8,2019-09-03,104403.0,Fair,No,State,1960s,,6,6,5,3269.0,KY 79,OHIO RIVER & CO ROAD,2-725 FT STEEL THRU TRUSSES -(12- (70 TO 172STL BEAMS),"A Open, no restriction",,5 Highway-pedestrian,6 Highway-waterway
District 04,Meade,38.000210183,-86.111981931,County,KYTC,082C00001N,02,3,2025-06-20,610.0,Poor,No,Local,1970s,,7,4,5,85.0,LONG BR RD,DOE RUN,1-29 FT SPAN PRECAST PRESTR. CONCRETE DECK UNITS,P Posted for load,18.0,1 Highway,5 Waterway
District 04,Meade,38.08192808,-86.358900792,County,KYTC,082C00006N,02,3,2024-08-20,1568.0,Fair,No,Local,1990s,,6,7,6,4.0,Lapland Rd.,Branch of Wolf Creek,1- 98 FT PRESTRESSED CONCRETE BOX BEAM SPAN,"A Open, no restriction",,1 Highway,5 Waterway
District 04,Meade,38.065973887,-86.426909056,County,KYTC,082C00007N,02,3,2024-04-15,2422.0,Fair,No,Local,1990s,,7,7,6,20.0,WATSON RD,WATSON RUN SLOUGH,35-72-35   FT. PRESTRESSED CONC BOX BEAM SPAN CONT,"A Open, no restriction",,1 Highway,5 Waterway
District 04,Meade,38.029212793,-86.237022999,County,CONTRACTOR,082C00008N,02,3,2017-12-20,1980.0,Fair,No,Local,2000s,,5,8,6,89.0,CROSIER BOTTOM RD,FRENCH CREEK,B2B 1 - 81 PONY TRUSS WITH CONCRETE DECK,P Posted for load,28.0,1 Highway,5 Waterway
District 04,Nelson,37.88176103,-85.506921037,County,KYTC,090C00042N,02,3,2022-08-01,782.0,Poor,No,Local,1970s,,4,7,4,277.0,SULLIVAN LN,SAMUELS CREEK,1-29 FT SS Box Beam SPAN -(75 FT S. JCT. KY 509),P Posted for load,24.0,1 Highway,5 Waterway
District 04,Nelson,37.874988354,-85.416831173,County,KYTC,090C00044N,02,3,2024-09-12,1306.0,Good,No,Local,1980s,,7,7,7,286.0,PLUM RUN RD,TRIB.-COX CREEK,1-53 FT. PRECAST PREST. CONC. BOX BEAMS - 45 DEG,"A Open, no restriction",,1 Highway,5 Waterway
District 04,Nelson,37.875865673,-85.232982067,County,KYTC,090C00046N,02,3,2024-04-25,1440.0,Fair,No,Local,1990s,,6,7,6,280.0,MURPHY LN,JESSIE RUN,1-60 FT PREST CONC BOX BEAM SPAN,P Posted for load,35.0,1 Highway,5 Waterway
District 04,Nelson,37.871585441,-85.4198392,County,KYTC,090C00047N,02,3,2023-11-29,1476.0,Fair,No,Local,1990s,,7,7,6,286.0,Plum Run Rd.,Cox Creek,1-62 FT PREST CONC BOX BEAM SPAN,"A Open, no restriction",,1 Highway,5 Waterway
District 04,Nelson,37.922941415,-85.35372374,KYTC,KYTC,090B00004N,01,3,2022-06-20,5126.0,Fair,No,State,Over 75,State Secondary,6,5,5,1976.0,KY-48,W FK SIMPSON CREEK,3-45 FT R.C.D.G. SPANS - 30 DEG SKEW,P Posted for load,,1 Highway,5 Waterway
District 04,Nelson,37.986332074,-85.488224669,County,KYTC,090C00050N,02,3,2023-11-29,993.0,Fair,No,Local,1990s,,7,6,7,20.0,GRIGSBY LN,POWELL RUN CREEK,1-36 FT PREST CONC DECK BOX BEAM,"A Open, no restriction",,1 Highway,5 Waterway
District 04,Nelson,37.937625128,-85.204040773,County,KYTC,090C00051N,02,3,2019-02-28,353.0,Fair,No,Local,1990s,,6,6,6,14.0,DRAKE LN X,TIMBER CREEK,1-30 STEEL BEAM SPAN,P Posted for load,24.0,1 Highway,5 Waterway
District 04,Nelson,37.856829372,-85.44669138,County,KYTC,090C00054N,02,3,2023-11-29,972.0,Good,No,Local,1990s,,7,7,7,1906.0,PLUM RUN RD,MURRAY RUN CREEK,1- 40 FT PRESTRESSED CONCRETE BOX BEAM SPAN,"A Open, no restriction",,1 Highway,5 Waterway
District 04,Nelson,37.912550747,-85.379950334,County,KYTC,090C00055N,02,3,2023-07-19,1248.0,Good,No,Local,1990s,,7,7,7,,PLUM RUN RD,PLUM RUN CREEK,1- 52 FT PRESTRESSED CONCRETE BOX BEAM SPAN,"A Open, no restriction",,1 Highway,5 Waterway
District 04,Nelson,37.878600857,-85.486753244,County,KYTC,090C00057N,02,3,2024-08-23,953.0,Good,No,Local,1990s,,7,7,7,277.0,SULLIVAN LN,FROMAN CREEK,1-36 FT PREST CONC DECK UNIT,"A Open, no restriction",,1 Highway,5 Waterway
District 04,Nelson,37.95087882,-85.415283385,County,KYTC,090C00049N,02,3,2024-04-24,1154.0,Good,No,Local,1990s,,7,7,7,145.0,WHITESIDES RD,EAST FORK COX CREEK,1-48 FT PREST CONC BOX BEAM SPAN,"A Open, no restriction",,1 Highway,5 Waterway
District 04,Nelson,37.903258081,-85.284435166,KYTC,CONTRACTOR,090B00009N,01,3,2021-10-05,1392.0,Fair,No,State,Over 75,State Secondary,N,N,N,1665.0,US-62,JACKS CREEK,DBL 8X8X58 RC CLVT -4.5 FT FILL,"A Open, no restriction",,1 Highway,5 Waterway
District 04,Nelson,37.885177839,-85.350222058,KYTC,KYTC,090B00010N,01,3,2023-03-02,2016.0,Poor,No,State,1970s,Rural Secondary,7,6,4,478.0,KY-162,W FORK SIMPSON CREEK,1-70 FT PRECAST-PRESTRESSED CONCRETE SPAN-30 DEG SKEW,P Posted for load,,1 Highway,5 Waterway
District 04,Nelson,37.746947441,-85.68343689,KYTC,KYTC,090B00011L,01,3,2022-10-31,10577.0,Fair,Yes,State,1960s,State Primary (Parkway),6,6,6,8494.0,BLUEGRASS PARKWAY,ROLLING FORK RIVER,TWIN 2-50 FT SIMPLE R.C.D.G. & 60-80-60 CONT. R.C.D.G.,"A Open, no restriction",,1 Highway,5 Waterway
District 04,Nelson,37.74674953,-85.68339377,KYTC,KYTC,090B00011R,01,3,2022-10-31,10577.0,Fair,Yes,State,1960s,State Primary (Parkway),7,6,7,8494.0,BG-9002,ROLLING FORK RIVER,TWIN 2-50 FT SIMPLE R.C.D.G. & 60-80-60 CONT. R.C.D.G.,"A Open, no restriction",,1 Highway,5 Waterway
District 04,Nelson,37.749010133,-85.674516479,KYTC,KYTC,090B00012L,01,3,2025-08-26,4897.0,Fair,Yes,State,1960s,State Primary (Parkway),7,5,6,8494.0,Bluegrass Parkway,KY 52,TWIN 33 FT- 43 FT- 33 FT SIMPLE R.C.D.G. SPANS - 19 DEG,"A Open, no restriction",,1 Highway,1 Highway
District 04,Nelson,37.748807428,-85.674520839,KYTC,KYTC,090B00012R,01,3,2025-08-26,4208.0,Fair,Yes,State,1960s,State Primary (Parkway),7,5,6,8494.0,Bluegrass Parkway,KY 52,TWIN 33 FT- 43 FT- 33 FT SIMPLE R.C.D.G. SPANS - 19 DEG,"A Open, no restriction",,1 Highway,1 Highway
District 04,Nelson,37.911685683,-85.312853164,KYTC,CONTRACTOR,090B00007N,01,3,2021-10-05,2172.0,Fair,No,State,Over 75,State Secondary,N,N,N,2432.0,US-62,HINKLE CREEK,DBL 12X5X57 RC CLVT -3.5 FT FILL                     W,"A Open, no restriction",,1 Highway,5 Waterway
District 04,Larue,37.636284,-85.59929,County,KYTC,062C00033N,02,3,2019-08-29,1536.0,Good,No,Local,2010s,,8,7,8,99.0,Blanton Road,Knob Creek,,"A Open, no restriction",,1 Highway,5 Waterway
District 04,Nelson,37.928819747,-85.191858864,County,KYTC,090C00059N,02,3,2023-11-29,686.0,Good,No,Local,1990s,,7,7,7,319.0,GREEN CHAPEL RD,TIMBER CREEK,1- 28      FT. PRESTRESSED CONC BOX BEAM SPAN,P Posted for load,24.0,1 Highway,5 Waterway
District 04,Nelson,37.758174188,-85.421468824,County,KYTC,090C00060N,02,3,2023-11-29,2233.0,Good,No,Local,1990s,,7,7,7,148.0,POTTERSHOP RD,BEAR CREEK,2- 45      FT. PRESTRESSED CONC BOX BEAM SPANS,"A Open, no restriction",,1 Highway,5 Waterway
District 04,Nelson,37.87615359,-85.434323389,County,KYTC,090C00061N,02,3,2024-08-23,1779.0,Fair,No,Local,1990s,,6,7,6,653.0,MURRAY RUN RD,COX CREEK,1-73 FT. PRESTRESSED CONC BOX BEAM SPANS,"A Open, no restriction",,1 Highway,5 Waterway
District 04,Nelson,37.862764206,-85.427722378,County,KYTC,090C00062N,02,3,2024-08-23,1695.0,Good,No,Local,2000s,,7,7,7,823.0,PLUM RUN RD,CANEY FORK CREEK,1-69 FT. PRESTRESSED CONC BOX BEAM SPAN PPCDU,"A Open, no restriction",,1 Highway,5 Waterway
District 04,Nelson,37.949133947,-85.287509373,County,KYTC,090C00063N,02,3,2022-02-17,856.0,Fair,No,Local,2000s,,6,6,6,44.0,EGGEN RD,JACKS CREEK,1-35 FT. STEEL STRINGER SPAN,P Posted for load,34.0,1 Highway,5 Waterway
District 04,Nelson,37.626382814,-85.579311569,County,KYTC,090C00064N,02,3,2025-04-30,5211.0,Good,No,Local,2000s,,7,7,7,92.0,BLANTON FORD RD,ROLLING FORK RIVER,1- 59- 75- 54 PCIB SPAN BRIDGE,"A Open, no restriction",,1 Highway,5 Waterway
District 04,Nelson,37.786707148,-85.640933794,County,KYTC,090C00065N,02,3,2024-08-23,1394.0,Good,No,Local,2000s,,7,7,7,211.0,LICK CREEK RD,LICK CREEK,58 PPCDU BOX BEAMS,"A Open, no restriction",,1 Highway,5 Waterway
District 04,Nelson,37.751457179,-85.662705483,KYTC,KYTC,090B00013L,01,3,2022-10-31,5884.0,Fair,Yes,State,1960s,State Primary (Parkway),6,6,6,7583.0,BLUEGRASS PARKWAY,KRM RAILROAD,TWIN 50 FT-66 FT- 50 FT CONT. R.C.D.G. SPANS - 15 DEG 4,"A Open, no restriction",,1 Highway,2 Railroad
District 04,Nelson,37.751259979,-85.662702842,KYTC,KYTC,090B00013R,01,3,2022-10-31,5884.0,Fair,Yes,State,1960s,State Primary (Parkway),6,6,6,7583.0,BG-9002,KRM RAILROAD,TWIN 50 FT-66 FT- 50 FT CONT. R.C.D.G. SPANS - 15 DEG 4,"A Open, no restriction",,1 Highway,2 Railroad
District 04,Nelson,37.755597412,-85.630491773,KYTC,KYTC,090B00014L,01,3,2022-11-29,11228.0,Fair,Yes,State,1960s,State Primary (Parkway),6,6,6,7583.0,BLUEGRASS PARKWAY,BEECH FORK RIVER,TWIN 1-40.5 FT SIMPLE & 70-90-70-40.5 CONT R.C.D.G. SPA,"A Open, no restriction",,1 Highway,5 Waterway
District 04,Nelson,37.779638793,-85.538425134,KYTC,KYTC,090B00015L,01,3,2022-11-29,16272.0,Fair,Yes,State,1960s,State Primary (Parkway),6,6,6,7583.0,MARTHA LAYNE COLLI,BEECH FORK RIVER,TWIN 4-50 FT SIMPLE & 75 FT- 100 FT- 75 FT CONT. R.C.D.,"A Open, no restriction",,1 Highway,5 Waterway
District 04,Nelson,37.779477302,-85.538300126,KYTC,KYTC,090B00015R,01,3,2022-11-29,16170.0,Fair,Yes,State,1960s,State Primary (Parkway),6,6,6,7583.0,BG-9002,BEECH FORK RIVER,TWIN 4-50 FT SIMPLE & 75 FT- 100 FT- 75 FT CONT. R.C.D.,"A Open, no restriction",,1 Highway,5 Waterway
District 04,Nelson,37.77771927,-85.471778929,KYTC,KYTC,090B00016L,01,3,2019-12-03,16604.0,Fair,Yes,State,1960s,State Primary (Parkway),7,6,6,5990.0,Bluegrass Parkway,Beech Fork,TWIN 4-50 FT SIMPLE & 80 FT- 100 FT- 80 FT CONT. R.C.D.,"A Open, no restriction",,1 Highway,5 Waterway
District 04,Nelson,37.787047005,-85.442864299,KYTC,KYTC,090B00017L,01,3,2025-06-30,4524.0,Fair,Yes,State,1960s,State Primary (Parkway),6,6,6,5990.0,Bluegrass Parkway,BARDSTOWN-LORETTO RD,TWIN 30 FT- 40 FT- 30 FT SIMPLE R.C.D.G. SPANS - 0 DEG,"A Open, no restriction",,1 Highway,1 Highway
District 04,Nelson,37.786896922,-85.442697437,KYTC,KYTC,090B00017R,01,3,2025-06-30,4524.0,Fair,Yes,State,1960s,State Primary (Parkway),6,6,6,5990.0,Bluegrass Parkway,BARDSTOWN-LORETTO RD,TWIN 30 FT- 40 FT- 30 FT SIMPLE R.C.D.G. SPANS - 0 DEG,"A Open, no restriction",,1 Highway,1 Highway
District 04,Nelson,37.876434994,-85.196090639,KYTC,KYTC,090B00019L,01,3,2021-12-06,12210.0,Fair,Yes,State,1960s,State Primary (Parkway),6,6,6,6796.0,Bluegrass Parkway,Chaplin River,TWIN 100-130-100- FT. CONT. COMP. WELDED PLATE GIRDER S,"A Open, no restriction",,1 Highway,5 Waterway
District 04,Nelson,37.871793421,-85.30083228,KYTC,KYTC,090B00020N,01,3,2025-08-26,9174.0,Fair,No,State,1960s,State Secondary,5,5,5,3128.0,KY-55,BLUEGRASS PARKWAY,53.5 FT- 75 FT- 75 FT- 53.5 FT CONT. R.C.D.G. SPANS - 1,"A Open, no restriction",,1 Highway,1 Highway
District 04,Nelson,37.832667851,-85.296076063,KYTC,KYTC,090B00022N,01,3,2013-01-18,10609.0,Fair,No,State,Over 75,State Secondary,6,5,6,851.0,KY-55,BEECH FORK RIVER,4-85 FT CONT. R.C. DECK BEAM UNITS WITH R.C. DECK & SUB,"A Open, no restriction",,1 Highway,5 Waterway
District 04,Nelson,37.800390294,-85.446034264,KYTC,KYTC,090B00025N,01,3,2017-10-17,1879.82,Fair,No,State,Over 75,State Primary (Other),N,N,N,10961.0,US-150,ROWAN CREEK,DBL 12X8X70 RC CLVT -6 FT FILL,P Posted for load,,1 Highway,5 Waterway
District 04,Nelson,37.787812216,-85.414498377,KYTC,CONTRACTOR,090B00026N,01,3,2021-10-05,549.55,Fair,No,State,Over 75,State Primary (Other),N,N,N,12583.0,US-150,MILL CREEK,DBL 12X10X79 RC CLVT -10 FT FILL                     W,"A Open, no restriction",,1 Highway,5 Waterway
District 04,Nelson,37.763134082,-85.348292361,KYTC,KYTC,090B00027N,01,3,2017-10-16,1189.68,Good,No,State,1950s,State Primary (Other),N,N,N,9268.0,US-150,SLOUGH BEECH FORK,TRPL 14X11X94 RC CLVT -3.5 FT FILL                   W,"A Open, no restriction",,1 Highway,5 Waterway
District 04,Nelson,37.776607406,-85.460240257,KYTC,KYTC,090B00029N,01,3,2022-09-07,6510.0,Fair,No,State,1960s,State Secondary,7,6,7,3160.0,LORETTO ROAD,BLUEGRASS PARKWAY,4-51 FT SIMPLE R.C.D.G. SPANS - 3 DEG 41 MIN SKEW,"A Open, no restriction",,1 Highway,1 Highway
District 04,Nelson,37.854678555,-85.33750092,KYTC,KYTC,090B00032N,01,3,2022-10-31,6708.0,Fair,No,State,1960s,Supplemental Road,6,6,6,318.0,KY-2230,BLUEGRASS PARKWAY,40 FT- 66 FT- 66  FT- 40 FT CONT. R.C.D.G. SPANS - 0 DE,P Posted for load,,1 Highway,1 Highway
District 04,Nelson,37.634991219,-85.493457595,KYTC,KYTC,090B00034N,01,3,2025-07-17,792.0,Fair,No,State,Over 75,State Secondary,5,5,5,1113.0,KY-52,S Fork Pottinger Creek,1-34 FT R.C.D.G. SPAN,P Posted for load,,1 Highway,5 Waterway
District 04,Nelson,37.883446404,-85.246486609,KYTC,KYTC,090B00036N,01,3,2019-03-13,8320.0,Fair,No,State,1960s,Supplemental Road,6,6,6,280.0,KY-2775,BLUEGRASS PARKWAY,59.5 FT- 71.5 FT- 71.5 FT- 59.5 FT CONT. R.C.D.G. SPANS,P Posted for load,,1 Highway,1 Highway
District 04,Nelson,37.550138835,-85.592398347,KYTC,CONTRACTOR,090B00037N,01,3,2021-10-05,466.0,Fair,No,State,Over 75,Rural Secondary,N,N,N,478.0,KY-84,FLATS BRANCH,DBL 12X8X32 RC CLVT -3 FT FILL,"A Open, no restriction",,1 Highway,5 Waterway
District 04,Nelson,37.56653901,-85.522774648,KYTC,KYTC,090B00038N,01,3,2018-09-10,2903.0,Fair,No,State,Over 75,Rural Secondary,7,6,7,401.0,KY-84,SULPHUR LICK CREEK,3-40 FT R.C.D.G. SPANS,"A Open, no restriction",,1 Highway,5 Waterway
District 04,Nelson,37.643734874,-85.568916669,KYTC,KYTC,090B00041N,01,3,2022-09-07,2550.0,Good,No,State,Over 75,Rural Secondary,7,7,7,823.0,KY-247,POTTINGER CREEK,2-50 CONCRETE DECK GIRDER SPANS,P Posted for load,,1 Highway,5 Waterway
District 04,Nelson,37.571339206,-85.592286942,KYTC,KYTC,090B00042N,01,3,2022-08-03,1612.21,Fair,No,State,1960s,Rural Secondary,N,N,N,396.0,KY-247,LUNAR CREEK @HOWARDSTOWN,DBL 12X6X46 RC CLVT -2.5 FT FILL,P Posted for load,22.0,1 Highway,5 Waterway
District 04,Nelson,37.650061389,-85.523031168,KYTC,KYTC,090B00033N,01,3,2025-06-17,3744.0,Fair,No,State,Over 75,State Secondary,7,6,6,1726.0,KY-52,MONKS CREEK,4-36 FT R.C.D.G. SPANS - 30 DEG SKEW,P Posted for load,,1 Highway,5 Waterway
District 04,Nelson,37.785421964,-85.489037809,KYTC,KYTC,090B00044N,01,3,2022-10-31,7054.0,Fair,No,State,1960s,State Primary (Other),6,6,6,10321.0,US-31E,BLUEGRASS PARKWAY,1-35 FT SIMPLE AND 54 FT- 65 FT- 54 FT CONT. R.C.D.G. S,P Posted for load,,1 Highway,1 Highway
District 04,Nelson,37.728189865,-85.527381547,KYTC,CONTRACTOR,090B00046N,01,3,2017-10-16,879.28,Good,No,State,Over 75,State Primary (Other),N,N,N,5306.0,US-31E,LANDING RUN,TRPL 12X10X66 RC CLVT -5 FT FILL,"A Open, no restriction",,1 Highway,5 Waterway
District 04,Nelson,37.695235486,-85.558094421,KYTC,KYTC,090B00047N,01,3,2017-10-16,2200.0,Fair,No,State,Over 75,State Primary (Other),N,N,N,3225.0,US-31E,PRICE CREEK,DBL 12X10X88 RC CLVT -15 FT FILL,P Posted for load,,1 Highway,5 Waterway
District 04,Nelson,37.675131139,-85.574881931,KYTC,CONTRACTOR,090B00048N,01,3,2024-10-02,722.27,Good,No,State,Over 75,State Primary (Other),N,N,N,3225.0,US-31E,NEVIT CREEK,DBL 8X6X77 RC CLVT -5 FT FILL                        SK,"A Open, no restriction",,1 Highway,5 Waterway
District 04,Nelson,37.672653603,-85.577875934,KYTC,CONTRACTOR,090B00049N,01,3,2024-10-02,2205.0,Fair,No,State,Over 75,State Primary (Other),N,N,N,3225.0,US-31E,DAVIS RUN,DBL 10X8X105 RC CLVT -15 FT FILL,"A Open, no restriction",,1 Highway,5 Waterway
District 04,Nelson,37.652787091,-85.593830808,KYTC,KYTC,090B00050N,01,3,2025-07-17,7022.0,Fair,No,State,Over 75,State Primary (Other),5,5,5,2671.0,US-31E,SLOUGH,7-30 FT CONCRETE DECK GIRDER SPANS,P Posted for load,,1 Highway,5 Waterway
District 04,Nelson,37.649533356,-85.597632844,KYTC,KYTC,090B00051N,01,3,2018-05-14,10508.0,Poor,No,State,Over 75,State Primary (Other),4,6,5,2671.0,US-31E,ROLLING FORK RIVER,4-85 FT CONT STEEL W.F. BEAM SPANS,"A Open, no restriction",,1 Highway,5 Waterway
District 04,Nelson,37.76512071,-85.679009134,KYTC,KYTC,090B00054N,01,3,2018-05-15,8867.0,Fair,No,State,1960s,State Secondary,6,7,6,2164.0,KY-52,BEECH FORK RIVER,87.5 FT- 125 FT- 87.5 FT CONT. WELDED PLATE GIRDERS - 3,"A Open, no restriction",,1 Highway,5 Waterway
District 04,Nelson,37.809605401,-85.576625901,KYTC,KYTC,090B00057N,01,3,2021-10-04,2087.0,Fair,No,State,Over 75,State Secondary,N,N,N,2451.0,US-62,LICK CREEK,TRPL 10X4X44 RC CLVT -2 FT FILL                      W,"A Open, no restriction",,1 Highway,5 Waterway
District 04,Nelson,37.805857725,-85.605233508,KYTC,KYTC,090B00058N,01,3,2025-07-17,1121.0,Poor,No,State,Over 75,State Secondary,4,5,4,2451.0,US-62,TEWELL CREEK,1-45 FT R.C.D.G. SPAN - 30 DEG SKEW,P Posted for load,,1 Highway,5 Waterway
District 04,Nelson,37.802552614,-85.622243476,KYTC,KYTC,090B00059N,01,3,2021-10-07,819.0,Fair,No,State,Over 75,State Secondary,N,N,N,2451.0,US-62,MADDOX BRANCH,DBL 10X5X39 RC CLVT -3 FT FILL,"A Open, no restriction",,1 Highway,5 Waterway
District 04,Nelson,37.790385668,-85.667710509,KYTC,KYTC,090B00060N,01,3,2021-10-04,777.0,Fair,No,State,Over 75,State Secondary,N,N,N,3233.0,US-62,BR OF LICK CREEK,DBL 12X10X54 RC CLVT -5 FT FILL,"A Open, no restriction",,1 Highway,5 Waterway
District 04,Nelson,37.801336332,-85.682864578,KYTC,KYTC,090B00061N,01,3,2016-08-19,2000.8,Fair,No,State,1960s,State Secondary,N,N,N,4120.0,KY-61,UNNAME STREAM,DBL 12 X 12 X 65 FT RC CULVT  3 FT FILL,"A Open, no restriction",,1 Highway,5 Waterway
District 04,Nelson,37.814340564,-85.694268858,KYTC,KYTC,090B00062N,01,3,2022-09-07,7165.0,Fair,No,State,1960s,State Secondary,7,6,6,4120.0,KY-61,WILSON CREEK,60 FT- 80 FT- 60 FT R.C.D.G. SPANS - 0 DEG SKEW,"A Open, no restriction",,1 Highway,5 Waterway
District 04,Nelson,37.829756601,-85.485042317,KYTC,KYTC,090B00063N,01,3,2017-10-16,591.32,Good,No,State,Over 75,State Secondary,N,N,N,4768.0,KY 1430,WITHROW CREEK,DBL 10X5X31 RC CLVT -2 FT FILL,"A Open, no restriction",,1 Highway,5 Waterway
District 04,Nelson,37.731797749,-85.397440469,KYTC,KYTC,090B00064N,01,3,2025-07-23,12725.0,Fair,No,State,1950s,Rural Secondary,6,6,6,927.0,KY-605,BEECH FORK RIVER,65 FT- 90 FT- 90 FT- 90 FT- 65 FT CONTINUOUS R.C. UNIT,"A Open, no restriction",,1 Highway,5 Waterway
District 04,Nelson,37.882643803,-85.223537897,KYTC,KYTC,090B00065N,01,3,2025-08-26,7000.0,Fair,No,State,1960s,Rural Secondary,6,6,6,301.0,KY-458,BLUEGRASS PW NR CHAPLIN,45 FT- 51 FT- 51 FT- 45 FT SIMPLE R.C.D.G. SPANS - 5 DE,"A Open, no restriction",,1 Highway,1 Highway
District 04,Nelson,37.903681679,-85.458185443,KYTC,KYTC,090B00069N,01,3,2017-10-16,832.0,Good,No,State,1950s,Rural Secondary,N,N,N,976.0,KY-509,BR OF COX CREEK,TRPL 10X8X26 RC CLVT -1 FT FILL,"A Open, no restriction",,1 Highway,5 Waterway
District 04,Nelson,37.901888162,-85.465072338,KYTC,KYTC,090B00070N,01,3,2022-02-17,1741.0,Poor,No,State,1970s,Rural Secondary,4,7,4,976.0,KY-509,COX CREEK,1-60 FT PREC.-PREST CONC BOX BEAM SPAN (PCBIB)-0 DEG,P Posted for load,,1 Highway,5 Waterway
District 04,Nelson,37.94394643,-85.505771648,KYTC,KYTC,090B00071N,01,3,2019-03-06,5539.0,Good,No,State,1950s,Rural Secondary,7,7,7,678.0,KY-523,COX CREEK,1-60 FT- 80 FT- 60 FT R.C. CONT. UNIT - 45 DEG SKEW,P Posted for load,,1 Highway,5 Waterway
District 04,Nelson,37.93783611,-85.246265267,KYTC,KYTC,090B00073N,01,3,2022-09-07,1891.0,Fair,No,State,1950s,Rural Secondary,5,5,5,313.0,KY-1066,ASHES CREEK,2-35 FT R.C.D.G. SPANS - 45 DEG SKEW,P Posted for load,,1 Highway,5 Waterway
District 04,Nelson,37.916983084,-85.289413273,KYTC,CONTRACTOR,090B00074N,01,3,2021-10-05,405.97,Good,No,State,1950s,Rural Secondary,N,N,N,517.0,KY-1066,JACKS CREEK,DBL 12X6X36 RC CLVT -4.5 FT FILL,"A Open, no restriction",,1 Highway,5 Waterway
District 04,Nelson,37.926557647,-85.255566978,KYTC,KYTC,090B00075N,01,3,2017-10-16,567.0,Fair,No,State,1950s,Rural Secondary,N,N,N,313.0,KY-1066,HUNTERS CREEK,DBL 10X7X27 RC CLVT -2 FT FILL,"A Open, no restriction",,1 Highway,5 Waterway
District 04,Nelson,37.940851203,-85.247440412,KYTC,CONTRACTOR,090B00076N,01,3,2021-10-06,432.44,Good,No,State,1950s,Rural Secondary,N,N,N,313.0,KY-1066,BR OF ASHES CREEK,DBL 8X6X43 RC CLVT -4.5 FT FILL,"A Open, no restriction",,1 Highway,5 Waterway
District 04,Nelson,37.663113263,-85.597393491,KYTC,KYTC,090B00077N,01,3,2022-10-31,10788.0,Fair,No,State,1950s,State Secondary,6,7,6,2176.0,KY-52,ROLLING FORK @NEW HAVEN,70 FT- 90 FT- 90 FT- 70 FT CONTINUOUS R.C.D.G. UNIT - 1,"A Open, no restriction",,1 Highway,5 Waterway
District 04,Nelson,37.825530455,-85.660479271,KYTC,KYTC,090B00078N,01,3,2022-06-16,2310.0,Poor,No,State,1950s,Rural Secondary,8,6,4,619.0,KY-733,WILSON CREEK,3-35 FT R.C.D.G. SPANS,P Posted for load,,1 Highway,5 Waterway
District 04,Nelson,37.758678,-85.622962,KYTC,KYTC,090B00079N,01,3,2025-08-26,5875.0,Fair,No,State,1960s,Rural Secondary,7,6,7,243.0,KY-733,BLUEGRASS PARKWAY,2-33.25 FT SIMPLE & 2-62 FT CONT. R.C.D.G. SPANS - 30 D,P Posted for load,,1 Highway,1 Highway
District 04,Nelson,37.763503503,-85.563518762,KYTC,KYTC,090B00080N,01,3,2025-08-26,9923.0,Fair,No,State,1960s,Rural Secondary,6,6,6,243.0,KY-733,Bluegrass Parkway,65.5 FT- 91 FT- 91 FT- 65.5 FT CONT. R.C.D.G. SPANS - 4,"A Open, no restriction",,1 Highway,1 Highway
District 04,Nelson,37.775693115,-85.54756305,KYTC,KYTC,090B00081N,01,3,2017-10-16,920.0,Fair,No,State,1950s,Rural Secondary,N,N,N,371.0,KY-733,CEDAR CREEK,TRPL 12X14X51 RC CLVT -11 FT FILL                    W,"A Open, no restriction",,1 Highway,5 Waterway
District 04,Nelson,37.758609184,-85.600792785,KYTC,KYTC,090B00082N,01,3,2017-10-16,514.43,Good,No,State,1950s,Rural Secondary,N,N,N,243.0,KY-733,SNAKE RUN,TRPL 10X6X56 RC CLVT -14 FT FILL,"A Open, no restriction",,1 Highway,5 Waterway
District 04,Nelson,37.818539338,-85.397165312,KYTC,KYTC,090B00086N,01,3,2019-03-06,6885.0,Fair,No,State,1960s,Rural Secondary,5,6,5,2387.0,KY-605,BLUEGRASS PARKWAY,42 FT- 66 FT- 66 FT- 42 FT CONT. R.C.D.G. SPANS - 30 DE,P Posted for load,,1 Highway,1 Highway
District 04,Nelson,37.82268523,-85.408254095,KYTC,KYTC,090B00087N,01,3,2022-08-03,715.0,Fair,No,State,1950s,Rural Secondary,N,N,N,5038.0,KY-605,ROWAN CREEK,DBL 8X5X39 RC CLVT -3 FT FILL,P Posted for load,22.0,1 Highway,5 Waterway
District 04,Nelson,37.814208962,-85.375324918,KYTC,KYTC,090B00088N,01,3,2022-08-03,2614.0,Fair,No,State,1950s,Rural Secondary,N,N,N,2387.0,KY-605,MILL CREEK,DBL 10X7X88 RC CLVT -16 FT FILL,P Posted for load,22.0,1 Highway,5 Waterway
District 04,Nelson,37.946257515,-85.288836184,KYTC,KYTC,090B00089N,01,3,2017-10-16,1509.0,Fair,No,State,1950s,Rural Secondary,N,N,N,425.0,KY-458,JACKS CREEK,TRPL 12X7X38 RC CLVT -3.5 FT FILL                    W,"A Open, no restriction",,1 Highway,5 Waterway
District 04,Nelson,37.929906357,-85.236653037,KYTC,KYTC,090B00092N,01,3,2022-08-03,2327.0,Fair,No,State,1960s,Rural Secondary,N,N,N,166.0,KY-1873,ASHES CREEK,TRIPLE 12X8X53 RC CULVT 3-FT FILL,P Posted for load,22.0,1 Highway,5 Waterway
District 04,Nelson,37.838797481,-85.369102277,KYTC,KYTC,090B00093N,01,3,2025-06-23,5664.0,Fair,No,State,1960s,Rural Secondary,6,5,5,519.0,KY-1858,BLUEGRASS PARKWAY,40 FT- 52 FT- 52 FT- 40 FT SIMPLE R.C.D.G. SPANS - 0 DE,"A Open, no restriction",,1 Highway,1 Highway
District 04,Nelson,37.637429673,-85.507890039,KYTC,KYTC,090B00097N,01,3,2024-11-08,7095.0,Fair,No,State,1970s,State Secondary,6,7,6,1726.0,KY-52,POTTINGER CREEK,56-80-55 FT CONT PCIB SPANS,"A Open, no restriction",,1 Highway,5 Waterway
District 04,Nelson,37.57365726,-85.605583368,KYTC,KYTC,090B00099N,01,3,2025-04-29,9691.0,Fair,No,State,1970s,Rural Secondary,6,6,6,647.0,KY-84,ROLLING FORK RIVER,50-100-100 SIMPLE SPAN TYPE 4 -PREST CONC-I-BM CONT.SPN,"A Open, no restriction",,1 Highway,5 Waterway
District 04,Nelson,37.883510907,-85.50440586,KYTC,KYTC,090B00101N,01,3,2025-02-25,1874.0,Poor,No,State,1980s,Rural Secondary,7,6,4,1332.0,KY-509,SAMUELS CREEK,1-65 FT PRECAST PREST. BOX BEAM SPAN - 45 DEG SKEW,P Posted for load,17.0,1 Highway,5 Waterway
District 04,Nelson,37.697580494,-85.616464183,KYTC,KYTC,090B00102N,01,3,2023-09-25,13288.0,Good,No,State,1980s,State Secondary,7,7,7,940.0,KY-52,ROLLING FORK RIVER,70-90-90-70 FT CONT P.C.I.B. SPANS,"A Open, no restriction",,1 Highway,5 Waterway
District 04,Nelson,37.806444625,-85.508674565,KYTC,KYTC,090B00103N,01,3,2025-04-08,2540.0,Fair,No,State,1980s,State Secondary,6,6,8,4793.0,US-62,SYMPSON LAKE SPILLWAY,1-57.2 FT. P.C.I.B. CONT. CONC.  SPAN,"A Open, no restriction",,1 Highway,5 Waterway
District 04,Nelson,37.981563074,-85.486737302,KYTC,KYTC,090B00104N,01,3,2023-09-25,6512.0,Good,No,State,1980s,Rural Secondary,7,7,7,564.0,KY-523,E FK COX CREEK,1-80 & 1-60 CONT. PREST CONC I-BEAM SPAN,"A Open, no restriction",,1 Highway,5 Waterway
District 04,Nelson,37.983636825,-85.485600632,KYTC,KYTC,090B00105N,01,3,2024-11-21,1606.0,Good,No,State,1980s,State Secondary,7,7,7,1401.0,US-31E,POWELL RUN,1-34 FT PRECAST PREST. CONC DECK UNIT,"A Open, no restriction",,1 Highway,5 Waterway
District 04,Nelson,37.827067299,-85.511892764,KYTC,KYTC,090B00107N,01,3,2022-02-25,682.0,Poor,No,State,1970s,Rural Secondary,6,6,4,874.0,KY-2737,BUFFALO CREEK,1-32 PRECAST(NOT PREST) BOX BEAM SPAN,P Posted for load,12.0,1 Highway,5 Waterway
District 04,Nelson,37.916681083,-85.497785559,KYTC,KYTC,090B00108N,01,3,2022-02-24,2527.0,Fair,No,State,1970s,Rural Secondary,7,7,5,137.0,KY-2739,COX CREEK,2-52 FT. PPC BOX BEAM-TYPE II SPANS,P Posted for load,,1 Highway,5 Waterway
District 04,Nelson,37.879525364,-85.29993538,KYTC,KYTC,090B00109N,01,3,2018-11-27,562.0,Poor,No,State,1970s,Rural Secondary,4,6,4,553.0,KY-2738,EAST FORK SIMPSON CREEK,1-22.8 FT. SPAN STEEL I BEAM WITH CONCRETE DECK,P Posted for load,11.0,1 Highway,5 Waterway
District 04,Nelson,37.891090936,-85.19932918,KYTC,KYTC,090B00110N,01,3,2025-05-19,6812.0,Good,No,State,1990s,Rural Secondary,7,8,8,371.0,KY-1754,CHAPLIN RIVER,80 -100 - 50 CONT P.C.I.B. SPANS,"A Open, no restriction",,1 Highway,5 Waterway
District 04,Nelson,37.760624689,-85.460395547,KYTC,KYTC,090B00111N,01,3,2025-05-16,14535.0,Good,No,State,1990s,State Secondary,7,8,7,3160.0,KY-49,BEECH FORK @ GREENWELL F,4-110 FT CONT PCIB SPANS,"A Open, no restriction",,1 Highway,5 Waterway
District 04,Nelson,37.881216959,-85.302592294,KYTC,KYTC,090B00112N,01,3,2025-05-09,3549.0,Good,No,State,1990s,State Secondary,7,7,8,3128.0,KY-55,EAST FK SIMPSON CK,1.- 90 PCIB SPAN,"A Open, no restriction",,1 Highway,5 Waterway
District 04,Nelson,37.796705175,-85.48056114,KYTC,KYTC,090B00113N,01,3,2025-04-01,22000.0,Fair,No,State,2000s,State Primary (Other),6,7,8,10321.0,US-31E,BEECH FORK RIVER,1-141 & 4-82 PRESTRESSED CONC CONT I BEAM SPANS,"A Open, no restriction",,1 Highway,5 Waterway
District 04,Nelson,37.805894855,-85.34793746,County,KYTC,090C00002N,02,3,2022-08-03,629.0,Poor,No,Local,1970s,,N,N,N,376.0,WOODLAWN RD,DRY RUN CREEK,SNGL 24.5 FT RC CLVT -2 FT FILL,P Posted for load,18.0,1 Highway,5 Waterway
District 04,Nelson,37.875368771,-85.36008952,County,KYTC,090C00004N,02,3,2022-02-17,1019.0,Poor,No,Local,Over 75,,6,5,4,170.0,DUGAN RD,W FK SIMPSON CREEK,15-14 CONT & 14.6 FT & 15.4 FT. CONT STEEL I-BEAMS,P Posted for load,26.0,1 Highway,5 Waterway
District 04,Nelson,37.944176696,-85.323723225,County,KYTC,090C00011N,02,3,2022-08-03,301.0,Poor,No,Local,Over 75,,4,4,4,33.0,STEVENS LN,BIG SPRINGS BRANCH CREEK,2-CONTINUOUS REINF. CONC. SLAB SPANS 11.0 FT & 10.8 FT,P Posted for load,15.0,1 Highway,5 Waterway
District 04,Marion,37.507866784,-85.29440748,KYTC,KYTC,078B00072N,01,3,2023-06-27,16579.0,Good,Yes,State,1980s,State Primary (Other),7,7,7,6746.0,US-68,ROLLING FORK,60- 95 - 95 - 95 FT. CONT. PCIB SPANS,"A Open, no restriction",,1 Highway,5 Waterway
District 04,Nelson,37.696773018,-85.581176625,County,KYTC,090C00029N,02,3,2022-08-03,2993.0,Fair,No,Local,1960s,,6,7,6,337.0,ICETOWN RD,PRICE CREEK,3-33 FT. SIMPLE SPANS REINFORCED CONCRETE DECK GIRDERS,P Posted for load,18.0,1 Highway,5 Waterway
District 04,Marion,37.555364601,-85.431002645,KYTC,KYTC,078B00056N,01,3,2022-06-08,6890.0,Poor,No,State,1950s,Rural Secondary,6,6,4,623.0,KY-527,ROLLING FORK RIVER,5-50 FT R.C.D.G. SPANS-0 DEG. SKEW,P Posted for load,,1 Highway,5 Waterway
District 04,Breckinridge,37.625231341,-86.455962627,KYTC,KYTC,014B00004N,01,3,2021-11-30,20765.0,Fair,No,State,1960s,State Secondary,6,5,6,1658.0,KY-79,NORTH FORK OF ROUGH RIVE,120 FT- 170 FT- 120 FT WELDED PLATE GIRDER &,"A Open, no restriction",,1 Highway,5 Waterway
District 04,Taylor,37.392405617,-85.438386442,KYTC,KYTC,109B00055N,01,3,2019-10-30,1369.03,Fair,No,State,1980s,State Primary (Other),N,N,N,5396.0,KY-210,FALLING TIMBER BRANCH,DBL 10X5 RC CLVT - 1.5 FILL,"A Open, no restriction",,1 Highway,5 Waterway
District 04,Taylor,37.355949448,-85.343304334,KYTC,KYTC,109B00056N,01,3,2016-06-16,2994.0,Fair,No,State,1980s,State Secondary,N,N,N,8647.0,KY-289,TRACE FK-CTY RSVR OUTLET,TRPL 18.7X17 RC CLVT -8 FT FILL,"A Open, no restriction",,1 Highway,5 Waterway
District 04,Taylor,37.447243238,-85.385645349,County,KYTC,109C00036N,02,3,2023-11-29,960.0,Good,No,Local,1990s,,7,7,7,51.0,HENRY LEE RD,BIG PITMAN CREEK,1-37 FT PREST CONC BOX BEAM SPANS,"A Open, no restriction",,1 Highway,5 Waterway
District 04,Taylor,37.415975029,-85.165960512,County,KYTC,109C00038N,02,3,2023-11-29,1630.0,Fair,No,Local,1990s,,6,7,6,448.0,MERRIMAC RD,TALLOW CREEK,1-68 FT PRESTRESSED CONCRETE BOX BEAM SPAN,"A Open, no restriction",,1 Highway,5 Waterway
District 04,Taylor,37.450714894,-85.361023164,County,KYTC,109C00039N,02,3,2023-11-29,1033.0,Good,No,Local,1990s,,7,8,7,76.0,FEATHERCREEK RD,PITMAN CREEK,1-42 FT.PRESTRESSED CONC BOX BEAM SPAN,"A Open, no restriction",,1 Highway,5 Waterway
District 04,Taylor,37.332442131,-85.196192024,County,KYTC,109C00041N,02,3,2023-11-29,1213.0,Good,No,Local,1990s,,7,7,7,102.0,BURRESS HOLLOW RD,STONER CREEK,1 - 50    FT. PRESTRESSED CONC BOX BEAM SPAN,"A Open, no restriction",,1 Highway,5 Waterway
District 04,Breckinridge,37.697260411,-86.567142619,KYTC,CONTRACTOR,014B00007N,01,3,2021-09-21,2353.0,Fair,No,State,Over 75,State Secondary,N,N,N,1260.0,KY-261,ROCK LICK CREEK,DBL 12X10X94 RC CLVT -15 FT FILL,"A Open, no restriction",,1 Highway,5 Waterway
District 04,Taylor,37.384507085,-85.460123281,County,KYTC,109C00043N,02,3,2023-11-29,2090.0,Fair,No,Local,1990s,,7,7,6,128.0,J MOSS RD,PITMAN CREEK,1-86       FT. PRESTRESSED CONC BOX BEAM  SPANS,"A Open, no restriction",,1 Highway,5 Waterway
District 04,Taylor,37.414770132,-85.439622131,County,KYTC,109C00044N,02,3,2023-11-29,1392.0,Good,No,Local,1990s,,7,7,7,118.0,CHANEY PIKE RD,BIG PITMAN CREEK,1-58 FT. PRESTRESSED CONC BOX BEAM SPANS,"A Open, no restriction",,1 Highway,5 Waterway
District 04,Taylor,37.33332145,-85.420641738,County,KYTC,109C00045N,02,3,2022-06-20,3576.0,Fair,No,Local,1960s,,5,6,5,272.0,OLD SUMMERSVILLE R,LITTLE PITMAN CREEK,1-45 FT-1-50 FT-1-45 FT R.C.D.G. SPANS-0 DEG SKEW,"A Open, no restriction",,1 Highway,5 Waterway
District 04,Breckinridge,37.913982786,-86.52301316,KYTC,KYTC,014B00016N,01,3,2025-04-03,8570.0,Fair,No,State,Over 75,Rural Secondary,5,6,6,342.0,KY-144,SINKING CREEK @STEPHENSP,1-320.42 FT THROUGH TRUSS SPAN,P Posted for load,,1 Highway,5 Waterway
District 04,Washington,37.744166173,-85.349553264,KYTC,KYTC,115B00040N,01,3,2024-03-15,1320.0,Fair,No,State,1960s,Rural Secondary,5,6,5,118.0,Ky 1872 (Newton Rd,SHORT CREEK,1-60 FT I BEAM SPAN - 0 DEG SKEW,P Posted for load,,1 Highway,5 Waterway
District 04,Washington,37.875485087,-85.147510949,KYTC,KYTC,115B00041L,01,3,2022-04-26,16375.0,Fair,Yes,State,1960s,State Primary (Parkway),7,6,6,7469.0,BLUEGRASS PARKWAY,CHAPLIN RIVER,50 PCIB;94.5-124.5-94.5 CONT.WPG;100 PCIB SPANS,"A Open, no restriction",,1 Highway,5 Waterway
District 04,Washington,37.875324481,-85.147381723,KYTC,KYTC,115B00041R,01,3,2022-04-26,18086.0,Fair,Yes,State,1960s,State Primary (Parkway),6,5,6,7469.0,BG-9002,CHAPLIN RIVER,50 PCIB;94.5-124.5-94.5 CONT.WPG;100 PCIB SPANS,"A Open, no restriction",,1 Highway,5 Waterway
District 04,Breckinridge,37.809019206,-86.490841302,KYTC,KYTC,014B00022N,01,3,2019-10-30,620.31,Good,No,State,Over 75,State Secondary,N,N,N,1563.0,KY-259,FORK OF HARDIN CREEK,DBL 12X8X29 RC CLVT -3 FT FILL,"A Open, no restriction",,1 Highway,5 Waterway
District 04,Washington,37.725920233,-85.191787652,KYTC,KYTC,115B00046N,01,3,2022-07-26,13566.0,Fair,Yes,State,1970s,State Primary (Other),7,7,6,5102.0,KY-555,BEECH FORK RIVER,3  (93' - 93.83' - 93')  PCI Beam Spans,"A Open, no restriction",,1 Highway,5 Waterway
District 04,Washington,37.690696,-85.232423,KYTC,KYTC,115B00047N,01,3,2020-04-30,2560.0,Fair,Yes,State,1970s,State Primary (Other),N,N,N,8023.0,KY-555,ROAD RUN,DBL 12X8X106 RC CLVT -2 FT FILL,"A Open, no restriction",,1 Highway,5 Waterway
District 04,Washington,37.704755083,-85.14676623,KYTC,KYTC,115B00049N,01,3,2025-05-05,6642.0,Good,No,State,1980s,State Secondary,7,7,7,572.0,KY-152,BEECH FORK RIVER,60-80-60 PCIB SPAN CONT.,"A Open, no restriction",,1 Highway,5 Waterway
District 04,Washington,37.741443454,-85.093167843,KYTC,KYTC,115B00052N,01,3,2022-01-19,750.0,Poor,No,State,1980s,Rural Secondary,4,4,4,83.0,KY-438,LONG LICK CREEK,1-50 STEEL STRINGER SPANS,P Posted for load,16.0,1 Highway,5 Waterway
District 04,Washington,37.756594361,-85.127917203,KYTC,KYTC,115B00053N,01,3,2024-02-06,1150.0,Fair,No,State,1990s,Rural Secondary,6,7,6,83.0,KY-438,MAYS CREEK,1-48  FT PREST CONC BOX BEAM,"A Open, no restriction",,1 Highway,5 Waterway
District 04,Washington,37.760049503,-85.215984797,KYTC,KYTC,115B00055N,01,3,2023-11-29,588.0,Good,No,State,1990s,Rural Secondary,8,7,8,318.0,KY-438,LINCOLN RUN,1-26       FT PRESTRESSED CONC-     -BOX BEAM SPANS,P Posted for load,,1 Highway,5 Waterway
District 04,Washington,37.658621848,-85.130744883,KYTC,KYTC,115B00058N,01,3,2025-03-28,16840.0,Good,No,State,1990s,State Primary (Other),7,8,8,3031.0,US-150,BEECH FORK,100-120-100   PRESTRESSED CONC-CONT I    BEAM SPANS,"A Open, no restriction",,1 Highway,5 Waterway
District 04,Washington,37.778089296,-85.099802508,KYTC,KYTC,115B00059N,01,3,2023-11-29,963.0,Good,No,State,1990s,Rural Secondary,7,8,8,548.0,KY-433,TAYLORS FORK,1- 30       FT PRESTRESSED CONC-BOX       BEAM SPANS,"A Open, no restriction",,1 Highway,5 Waterway
District 04,Washington,37.696133839,-85.023284245,KYTC,KYTC,115B00061N,01,3,2024-02-06,1056.0,Fair,No,State,1980s,Rural Secondary,7,6,8,348.0,KY-1920,DEEP CREEK,1- 41 FT PREST. CONC. BOX BEAM SPAN,"A Open, no restriction",,1 Highway,5 Waterway
District 04,Washington,37.694787714,-85.214951126,KYTC,KYTC,115B00062N,01,3,2023-06-27,879.0,Good,No,State,2000s,Supplemental Road,8,7,8,663.0,KY-1584,POORHOUSE BRANCH,1- 25 PPC BOX BEAM SPAN,"A Open, no restriction",,1 Highway,5 Waterway
District 04,Washington,37.822801481,-85.223104343,County,KYTC,115C00030N,02,3,2019-02-22,802.0,Poor,No,Local,1970s,,6,4,6,41.0,HAYDON BROTHERS RD,LONG LICK CREEK,2-26 FT SIMPLE SPANS WITH STEEL GR DECK ON STEEL STRS,P Posted for load,20.0,1 Highway,5 Waterway
District 04,Washington,37.775180608,-85.332146665,County,KYTC,115C00032N,02,3,2022-08-03,350.0,Fair,No,Local,Over 75,,5,5,5,20.0,FILIATREAU LN,HOG RUN,2-CONTINUOUS CONCRETE SLAB SPANS 13.8 FT AND 14.2 FT,P Posted for load,18.0,1 Highway,5 Waterway
District 04,Washington,37.701778476,-85.14297016,County,KYTC,115C00038N,02,3,2022-01-13,760.0,Fair,No,Local,1980s,,6,7,5,49.0,HAGAN LN,MILL RUN CREEK,1-50 FT. STEEL BEAM SPAN - CONC. DECK,"A Open, no restriction",,1 Highway,5 Waterway
District 04,Washington,37.65960889,-85.272940497,County,KYTC,115C00041N,02,3,2025-08-12,1586.0,Fair,No,Local,1980s,,5,6,5,418.0,BOOKER RD,CARTWRIGHT CREEK,1-100 FT. PRESTRESSED CONC. BOX BEAM SPAN,"A Open, no restriction",,1 Highway,5 Waterway
District 04,Washington,37.810702408,-85.212244184,County,KYTC,115C00043N,02,3,2025-08-12,1168.0,Good,No,Local,1990s,,7,7,7,37.0,HARDESTY RD,LICK CREEK,1-70 FT PREST CONC DECK UNIT,"A Open, no restriction",,1 Highway,5 Waterway
District 04,Washington,37.70930747,-85.028034649,County,KYTC,115C00042N,02,3,2022-03-04,384.0,Fair,No,Local,1980s,,7,6,5,112.0,WINDY WAY LN,GLENS CREEK,1-24 STEEL BEAM SPAN,P Posted for load,18.0,1 Highway,5 Waterway
District 04,Taylor,37.340507444,-85.348302975,KYTC,KYTC,109B00042N,01,3,2017-11-21,1478.4,Fair,No,State,1960s,State Primary (Other),N,N,N,17224.0,US-68,BUCKHORN CREEK,SNGL 20X7X131 RC CLVT -6 FT FILL,P Posted for load,,1 Highway,5 Waterway
District 04,Taylor,37.370710676,-85.195956091,KYTC,KYTC,109B00043N,01,3,2024-11-08,7477.0,Fair,No,State,1970s,State Secondary,7,6,6,1190.0,KY-70,ROBINSON CREEK,60-80-60CONT PCIB SPANS,"A Open, no restriction",,1 Highway,5 Waterway
District 04,Taylor,37.336035127,-85.360101112,KYTC,KYTC,109B00044N,01,3,2021-02-23,9681.0,Fair,No,State,1970s,Rural Secondary,6,5,6,4242.0,KY-323,KY-210,52 - 93 - 52 W.S.P.C. SPANS,"A Open, no restriction",,1 Highway,1 Highway
District 04,Taylor,37.399108167,-85.178510852,KYTC,KYTC,109B00045N,01,3,2023-09-25,3534.0,Fair,No,State,1970s,Rural Secondary,8,6,7,727.0,KY-337,BLACK LICK CREEK,25 - 40 - 25 FT. CONT. P.C.I.B. SPAN - 0 DEG SKEW,"A Open, no restriction",,1 Highway,5 Waterway
District 04,Taylor,37.363672784,-85.355640762,KYTC,CONTRACTOR,109B00050N,01,3,2021-10-07,1213.66,Fair,No,State,1980s,Rural Secondary,N,N,N,2335.0,KY-527,LITTLE PITMAN CREEK,DBL 14X6 RC CLVT -FILL=3.2,"A Open, no restriction",,1 Highway,5 Waterway
District 04,Taylor,37.370009321,-85.403525316,KYTC,CONTRACTOR,109B00053N,01,3,2025-02-06,6642.0,Good,No,State,1980s,State Primary (Other),7,7,8,6149.0,KY-210,MIDDLE PITMAN CR,75-75-60 PCIB SIMPLE SPANS,"A Open, no restriction",,1 Highway,5 Waterway
District 04,Hardin,37.560082,-85.876495,KYTC,KYTC,047B00185N,01,3,2022-12-30,42929.25,Good,Yes,State,2010s,State Primary (Interst.),8,7,8,42404.0,I 65,Nolin River,3-PCIB spans 111'-106'-111',"A Open, no restriction",,1 Highway,5 Waterway
District 04,Breckinridge,37.642012229,-86.483432881,KYTC,KYTC,014B00003N,01,3,2010-02-05,6768.0,Poor,No,State,1960s,State Secondary,4,5,6,1658.0,KY-79,LONG LICK CREEK,60 FT- 80 FT- 60 FT CONT. STEEL BEAM UNIT-0 DEG SKEW,"A Open, no restriction",,1 Highway,5 Waterway
District 04,Breckinridge,37.641374676,-86.601895444,County,KYTC,014C00052N,02,3,2022-05-02,980.0,Fair,No,Local,2000s,,7,6,6,45.0,OLD RAILRD  ROAD,HARRIS FORK,2-34.5 FT STEEL STRINGER SPANS,"A Open, no restriction",,1 Highway,5 Waterway
District 04,Breckinridge,37.641678768,-86.624302368,County,KYTC,014C00054N,02,3,2024-05-01,1840.0,Fair,No,Local,2000s,,7,7,6,55.0,OLD RAILRD  ROAD,TRIBUTARY OF HARRIS FORK,1 493 SPAN B21-48 PPCDU & 1 633 SPAN B27-48 PPCDU,"A Open, no restriction",,1 Highway,5 Waterway
District 04,Green,37.23628,-85.500577,KYTC,KYTC,044B00045N,01,3,2023-09-21,3009.6,Good,No,State,2010s,State Secondary,8,8,8,2380.0,US 68,Clover Lick Creek,,"A Open, no restriction",,1 Highway,5 Waterway
District 04,Breckinridge,37.730976405,-86.361445154,KYTC,KYTC,014B00026N,01,3,2019-10-30,835.0,Fair,No,State,1960s,Rural Secondary,N,N,N,872.0,KY-1401,LOST RUN BRANCH,DBL 14X7X29 RC CLVT -3 FT FILL,"A Open, no restriction",,1 Highway,5 Waterway
District 04,Breckinridge,37.585053928,-86.618882302,KYTC,KYTC,014B00028N,01,3,2019-10-30,922.0,Good,No,State,1960s,Rural Secondary,N,N,N,236.0,KY-110,POND RUN CREEK,DBL 14X6X32 RC CLVT -3 FT FILL,"A Open, no restriction",,1 Highway,5 Waterway
District 04,Breckinridge,37.767480711,-86.524431523,KYTC,KYTC,014B00037N,01,3,2025-06-05,2947.0,Good,No,State,1950s,Rural Secondary,7,7,7,574.0,KY-992,CLOVER CREEK,3-35 FT R.C.D.G. SPANS,"A Open, no restriction",,1 Highway,5 Waterway
District 04,Washington,37.738482,-85.235179,County,KYTC,115C00077N,02,3,2017-12-01,614.0,Good,No,Local,2010s,,N,N,N,10.0,Seibert Creek Lane,Seibert Creek,,P Posted for load,18.0,1 Highway,5 Waterway
District 04,Breckinridge,37.669735924,-86.578455176,KYTC,KYTC,014B00039N,01,3,2022-04-13,1168.0,Fair,No,State,1950s,Rural Secondary,6,7,6,254.0,KY-629,BLACK LICK CREEK,1-50 FT R.C.D.G. SPAN,P Posted for load,,1 Highway,5 Waterway
District 04,Breckinridge,37.694258467,-86.266124923,KYTC,KYTC,014B00042N,01,3,2022-08-03,1180.0,Fair,No,State,1950s,Rural Secondary,N,N,N,290.0,KY-690,MUDDY PRONG,TRPL 14X6X27 RC CLVT -3 FT FILL,P Posted for load,22.0,1 Highway,5 Waterway
District 04,Breckinridge,37.7783868,-86.4727262,KYTC,KYTC,014B00061N,01,3,2025-01-10,3451.0,Good,No,State,1990s,State Secondary,7,8,8,1329.0,KY-992,HARDING CREEK,1- 103 FT  P.C.I.B. SPAN,"A Open, no restriction",,1 Highway,5 Waterway
District 04,Breckinridge,37.785394463,-86.6577398,KYTC,KYTC,014B00062N,01,3,2024-02-15,552.0,Good,No,State,1990s,Rural Secondary,8,7,8,138.0,KY-992,SOUTH FORK HONEY LOCUST,1- 23       FT PRESTRESSED CONC-BOX       BEAM SPANS,P Posted for load,,1 Highway,5 Waterway
District 04,Breckinridge,37.774581849,-86.632103645,KYTC,KYTC,014B00063N,01,3,2020-03-20,2864.0,Good,No,State,2000s,Rural Secondary,8,8,8,138.0,KY-992,TAR FORK CREEK,1-91 PRESTRESSED CONC I- BEAM SPANS,"A Open, no restriction",,1 Highway,5 Waterway
District 04,Breckinridge,37.798677473,-86.661749558,KYTC,KYTC,014B00064N,01,3,2023-11-29,2656.0,Fair,No,State,2000s,Rural Secondary,7,8,6,138.0,KY-992,HONEY LOCUST CREEK,1- 83 PPCDU SPAN,"A Open, no restriction",,1 Highway,5 Waterway
District 04,Breckinridge,37.887004857,-86.356457763,County,KYTC,014C00006N,02,3,2022-08-03,426.0,Poor,No,Local,Over 100,,6,2,5,30.0,Chester Haynes Rd.,BR OFF SINKING CREEK,1-11.0 FT AND 1-22.3 FT SPANS STEEL BEAM,P Posted for load,3.0,1 Highway,5 Waterway
District 04,Breckinridge,37.65384032,-86.54291414,County,CONTRACTOR,014C00026N,02,3,2021-03-02,2402.0,Poor,No,Local,1960s,,N,N,N,10.0,BROWN FARM RD,DANELS CREEK,"LWF-8 24""X27 CMP SET IN CONCRETE","A Open, no restriction",,1 Highway,5 Waterway
District 04,Breckinridge,37.713175037,-86.56576004,County,KYTC,014C00034N,02,3,2022-04-12,592.0,Poor,No,Local,1960s,,4,5,5,89.0,CARL NEWBY RD,ROCK LICK CREEK,1-35.0 FT SPAN STEEL BEAM WITH CONCRETE DECK,P Posted for load,16.0,1 Highway,5 Waterway
District 04,Breckinridge,37.732879757,-86.485281461,County,KYTC,014C00035N,02,3,2019-02-22,437.0,Fair,No,Local,Over 75,,6,5,5,71.0,JACK MONARCH RD,BR OF CLOVER CREEK,2-17.3 FT SPANS STEEL I-BEAM CONC DECK,P Posted for load,26.0,1 Highway,5 Waterway
District 04,Breckinridge,37.807582543,-86.486809783,County,KYTC,014C00036N,02,3,2018-01-16,480.0,Fair,No,Local,1960s,,6,6,5,88.0,FINLEY-DOWELL RD,HARDINS CREEK,1-28.3 FT SPAN STEEL BEAM WITH CONCRETE DECK,P Posted for load,32.0,1 Highway,5 Waterway
District 04,Breckinridge,37.952160731,-86.487613492,County,KYTC,014C00041N,02,3,2018-01-16,474.0,Fair,No,Local,1960s,,6,5,5,50.0,Dutschke Mill Rd,Lick Run,1-38.5 FT SPAN STEEL BEAM WITH TIMBER DECK,P Posted for load,25.0,1 Highway,5 Waterway
District 04,Breckinridge,37.807236261,-86.580800782,County,KYTC,014C00042N,02,3,2022-02-17,2233.0,Fair,No,Local,1970s,,7,7,6,31.0,HARDIN MILLS ROAD,CLOVER CREEK,1-90.0 FT SPAN STEEL PLATE GIRDER WITH CONCRETE DECK,P Posted for load,28.0,1 Highway,5 Waterway
District 04,Breckinridge,37.820933382,-86.634380194,County,KYTC,014C00043N,02,3,2021-05-04,283.0,Fair,No,Local,1970s,,6,6,6,30.0,POLK LN,TRIBUTARY OF TAR FORK,1-23.8 FT SPAN STEEL BEAM WITH CONCRETE DECK,P Posted for load,26.0,1 Highway,5 Waterway
District 04,Breckinridge,37.631419353,-86.574820188,County,KYTC,014C00045N,02,3,2024-05-08,480.0,Good,No,Local,1990s,,7,7,7,49.0,OLD RAILROAD RD,TRIB- HARRIS FORK,1.30 FT PREST CONC BOX BEAM,P Posted for load,39.0,1 Highway,5 Waterway
District 04,Breckinridge,37.649030862,-86.545089768,County,KYTC,014C00048N,02,3,2024-05-01,480.0,Fair,No,Local,1990s,,7,6,7,114.0,GLEN DEAN-FALLS OF,TRIB-DANIELS CREEK,1- 30 FT PRESTRESSED CONCRETE BOX BEAM SPAN,P Posted for load,27.0,1 Highway,5 Waterway
District 04,Breckinridge,37.802632815,-86.630258651,County,KYTC,014C00050N,02,3,2024-04-25,1522.0,Fair,No,Local,1990s,,6,7,6,58.0,TAR SPRINGS RD,TAR FORK,1-95 FT. PRESTRESSED CONC BOX BEAM SPANS,"A Open, no restriction",,1 Highway,5 Waterway
District 04,Breckinridge,37.642868786,-86.608538229,County,KYTC,014C00051N,02,3,2021-05-04,667.0,Fair,No,Local,2000s,,6,6,7,45.0,Old Railroad Rd.,HARRIS FORK,1-46.5 FT STEEL STRINGER SPAN,P Posted for load,34.0,1 Highway,5 Waterway
District 04,Breckinridge,37.642909097,-86.620486531,County,KYTC,014C00046N,02,3,2022-05-02,336.0,Good,No,Local,1990s,,N,N,N,55.0,OLD RAILRD  ROAD,HARRIS FORK,SNGL 23 RC CLVT -NO FILL,"A Open, no restriction",,1 Highway,5 Waterway
District 04,Nelson,37.917136,-85.322928,City,KYTC,090C00080N,04,3,2020-07-20,1710.0,Good,No,Local,2010s,,8,8,8,456.0,Depot Street,Simpson Creek,"1-90' PC Box beam span w 5"" R/C deck","A Open, no restriction",,1 Highway,5 Waterway
District 04,Marion,37.499802,-85.397891,County,KYTC,078C00147N,02,3,2022-01-13,1080.0,Good,No,Local,2010s,,7,7,7,182.0,Gene Hunt Rd.,Clear Creek,1-Single Span Steel GIrder Structure,"A Open, no restriction",,1 Highway,5 Waterway
District 04,Larue,37.582647509,-85.728762914,KYTC,KYTC,062B00051N,01,3,2023-11-29,1626.0,Fair,No,State,1990s,Rural Secondary,6,6,6,385.0,KY-2217,CASTLEMAN CREEK,1- 67       FT PRESTRESSED CONC-BOX       BEAM SPANS,"A Open, no restriction",,1 Highway,5 Waterway
District 04,Larue,37.58766265,-85.685580755,KYTC,KYTC,062B00052N,01,3,2025-03-17,2805.0,Fair,No,State,2000s,State Primary (Other),6,7,8,2628.0,US-31E,CRADY CREEK,1-60 FT PRESTRESSED CONC I BEAM SPANS,"A Open, no restriction",,1 Highway,5 Waterway
District 04,Larue,37.648970942,-85.742770526,County,KYTC,062C00018N,02,3,2025-06-24,1320.0,Poor,No,Local,1970s,,5,6,4,136.0,MIDDLE CREEK CHURC,MIDDLE CREEK,1-24.8 FT AND 1-25.5 FT SPANS STEEL I BEAMS,P Posted for load,14.0,1 Highway,5 Waterway
District 04,Larue,37.609698631,-85.797661616,KYTC,KYTC,062B00040L,01,3,2025-05-05,10716.0,Fair,No,State,1980s,State Primary (Other),6,8,8,5903.0,KY-61,MIDDLE CREEK,75 - 75 - 75 FT  P.C.I.B. SPANS,"A Open, no restriction",,1 Highway,5 Waterway
District 04,Larue,37.609922771,-85.797632286,KYTC,KYTC,062B00040R,01,3,2025-05-05,9429.0,Good,No,State,1980s,State Primary (Other),7,7,8,5903.0,KY-61,MIDDLE CREEK,75 - 75 - 75 FT  P.C.I.B. SPANS,"A Open, no restriction",,1 Highway,5 Waterway
District 04,Larue,37.512243619,-85.699157774,KYTC,KYTC,062B00042N,01,3,2023-06-27,6165.0,Good,No,State,1980s,State Primary (Other),7,7,8,4275.0,KY-61,SOUTH FORK-NOLIN RIVER,33 - 69 - 33 FT CONT PCIB SPAN,"A Open, no restriction",,1 Highway,5 Waterway
District 04,Larue,37.508910258,-85.701405785,KYTC,KYTC,062B00043N,01,3,2023-06-27,3712.0,Good,No,State,1980s,State Primary (Other),7,7,8,3819.0,KY-61,SOUTH FORK-NOLIN RIVER,1-40 & 1-70 CONT P.CIB SPAN,"A Open, no restriction",,1 Highway,5 Waterway
District 04,Larue,37.583812947,-85.699949289,KYTC,KYTC,062B00044N,01,3,2023-11-29,1672.0,Fair,No,State,1980s,State Primary (Other),6,7,7,2808.0,US-31E,NORTH FORK NOLIN RIVER,1-36 FT PREST CONC BOX GIRDER,"A Open, no restriction",,1 Highway,5 Waterway
District 04,Larue,37.588204691,-85.689849855,KYTC,CONTRACTOR,062B00045N,01,3,2023-01-24,1672.0,Good,No,State,1990s,State Primary (Other),N,N,N,2628.0,US-31E,WILKINS CREEK,SNGL 23 FT RC CLVT -3 FT FILL,"A Open, no restriction",,1 Highway,5 Waterway
District 04,Larue,37.600519014,-85.652070381,KYTC,CONTRACTOR,062B00046N,01,3,2017-10-16,1559.0,Fair,No,State,1990s,State Primary (Other),N,N,N,2105.0,US-31E,FORK OF KNOB CREEK,1-16 X 5 X 138 FT RC BOX CULVERT -45 DEGREE SKEW,"A Open, no restriction",,1 Highway,5 Waterway
District 04,Larue,37.512324485,-85.630432405,KYTC,KYTC,062B00049N,01,3,2023-11-28,672.0,Good,No,State,1990s,Rural Secondary,7,7,7,96.0,KY 916,McDougal Creek,1- 28       FT PRESTRESSED CONC-BOX       BEAM SPANS,P Posted for load,,1 Highway,5 Waterway
District 04,Larue,37.612287333,-85.636357575,KYTC,KYTC,062B00050N,01,3,2024-11-21,3710.0,Good,No,State,1990s,State Primary (Other),7,8,7,2105.0,US-31E,KNOB CREEK,1-75        FT PRESTRESSED CONC-BOX       BEAM SPANS,"A Open, no restriction",,1 Highway,5 Waterway
District 04,Breckinridge,37.821666667,-86.295277778,County,KYTC,014C00069N,02,3,2019-10-16,1386.0,Good,No,Local,2010s,,7,7,8,108.0,Dents Bridge Road,Sinking Creek,1-99' PCIB span,"A Open, no restriction",,1 Highway,5 Waterway
District 04,Green,37.144212258,-85.595970873,County,KYTC,044C00035N,02,3,2024-04-26,549.0,Good,No,Local,1990s,,7,7,8,94.0,OLD LITTLE BARREN,GREASY CREEK,1- 34 FT PRESTRESSED CONCRETE BOX BEAM SPAN,"A Open, no restriction",,1 Highway,5 Waterway
District 04,Green,37.42084053,-85.629159836,County,KYTC,044C00036N,02,3,2024-04-26,448.0,Good,No,Local,1990s,,7,7,7,82.0,DESPAIN  RD,BRUSH CREEK,1-28  FT PRESTRESSED CONC BOX BEAM SPAN,P Posted for load,35.0,1 Highway,5 Waterway
District 04,Green,37.40501689,-85.575800403,County,KYTC,044C00037N,02,3,2024-04-26,1093.0,Good,No,Local,1990s,,7,8,7,110.0,BLOYDS BLUFF RD,BRUSH CREEK,1 - 68    FT. PRESTRESSED CONC BOX BEAM SPAN,"A Open, no restriction",,1 Highway,5 Waterway
District 04,Green,37.191512344,-85.383425701,County,KYTC,044C00038N,02,3,2024-02-13,2092.0,Fair,No,Local,1990s,,6,7,7,75.0,OLD CEDARTOP SCHOO,CANEY FORK,1-84       FT. PRESTRESSED CONC BOX BEAM SPAN,P Posted for load,18.0,1 Highway,5 Waterway
District 04,Green,37.437172,-85.623605,County,KYTC,044C00040N,02,3,2019-07-10,437.0,Good,No,Local,2000s,,8,7,7,10.0,TERRIL SCHOOL RD,BRUSH CREEK,1-36 FT. SIMPLE SPAN STEEL BEAM,"A Open, no restriction",,1 Highway,5 Waterway
District 04,Green,37.411113702,-85.6222907,County,KYTC,044C00034N,02,3,2024-04-26,608.0,Good,No,Local,1990s,,7,7,7,37.0,JONES CEMETERY RD,BRUSH CREEK,1-38 FT PRESTRESSED CONC BOX BEAM SPAN,"A Open, no restriction",,1 Highway,5 Waterway
District 04,Hardin,37.633888889,-85.860833333,KYTC,KYTC,047B00186N,01,3,2022-11-29,10243.45,Good,Yes,State,2010s,State Primary (Interst.),8,7,8,53566.0,I 65,Rhudes Creek Road,1-79' Spread box girder span,"A Open, no restriction",,1 Highway,1 Highway
District 04,Grayson,37.448896134,-86.340736539,KYTC,KYTC,043B00026L,01,3,2022-10-10,5460.0,Fair,Yes,State,1960s,State Primary (Parkway),6,6,6,5578.0,WK-9001,KY 187,TWIN BRIDGES (51.5 FT-56.5 FT- 48 FT R.C.D.G. SPANS-35,"A Open, no restriction",,1 Highway,1 Highway
District 04,Grayson,37.414266389,-86.415477608,KYTC,KYTC,043B00027R,01,3,2022-10-31,4538.0,Good,Yes,State,1960s,State Primary (Parkway),7,7,7,5578.0,WK-9001,MILLWOOD-PLEASANT VIEW R,TWIN BRIDGES (35 FT- 40 FT- 35 FT SIMPLE R.C.D.G. SPANS,"A Open, no restriction",,1 Highway,1 Highway
District 04,Grayson,37.410355066,-86.444070553,KYTC,CONTRACTOR,043B00028N,01,3,2021-09-22,3780.0,Fair,Yes,State,1960s,State Primary (Parkway),N,N,N,11155.0,WK-9001,CANEY FORK,DBL 14X10X130 RC CLVT -5 FT FILL,"A Open, no restriction",,1 Highway,5 Waterway
District 04,Grayson,37.412992282,-86.514724196,KYTC,CONTRACTOR,043B00030N,01,3,1901-01-01,7273.0,Fair,Yes,State,1960s,State Primary (Parkway),N,N,N,7571.0,WK-9001,BUCK CREEK,DBL 12X7X293 RC CLVT -FILL=45.6,"A Open, no restriction",,1 Highway,5 Waterway
District 04,Grayson,37.400835813,-86.558567677,KYTC,CONTRACTOR,043B00031N,01,3,1901-01-01,1994.55,Fair,Yes,State,1960s,State Primary (Parkway),N,N,N,7571.0,Western KY Parkway,DOG CREEK,DBL 12X8X385 RC CLVT-FILL @CR=8+@WKPW=65,"A Open, no restriction",,1 Highway,5 Waterway
District 04,Grayson,37.513634462,-86.150955096,KYTC,CONTRACTOR,043B00032N,01,3,2018-11-16,1920.0,Fair,Yes,State,1960s,State Primary (Parkway),N,N,N,11993.0,WK-9001,CLIFTY CREEK,SNGL 20X16X438 RC ARCH CLVT -FILL=40,"A Open, no restriction",,1 Highway,5 Waterway
District 04,Grayson,37.450015194,-86.380128421,KYTC,KYTC,043B00034N,01,3,2025-07-17,753.0,Fair,No,State,Over 75,State Secondary,5,6,5,2811.0,US-62,SOUTH FORK CANEY CREEK,1-34 FT R.C.D.G. SPAN,P Posted for load,,1 Highway,5 Waterway
District 04,Grayson,37.405819517,-86.510853305,KYTC,KYTC,043B00024N,01,3,2016-05-04,1075.36,Fair,No,State,Over 75,State Secondary,N,N,N,1288.0,KY-79,BUCK CREEK,TRPL 12X11X31.5 RC CULVT -2 FT FILL,"A Open, no restriction",,1 Highway,5 Waterway
District 04,Grayson,37.423845227,-86.482402496,KYTC,KYTC,043B00036N,01,3,2022-06-15,3168.0,Fair,No,State,Over 75,State Secondary,6,6,6,1884.0,US-62,CANEY CREEK,3-45 FT R.C.D.G. SPANS,P Posted for load,,1 Highway,5 Waterway
District 04,Grayson,37.389891926,-86.101840493,KYTC,KYTC,043B00062N,01,3,2016-08-04,437.0,Fair,No,State,Over 75,Rural Secondary,N,N,N,354.0,KY-1214,BARTON RUN CREEK,DBL 10X4X24 RC CLVT -2 FT FILL,"A Open, no restriction",,1 Highway,5 Waterway
District 04,Grayson,37.460463137,-86.224072552,KYTC,KYTC,043B00063N,01,3,2021-10-19,540.35,Good,No,State,1950s,Rural Secondary,N,N,N,1605.0,KY-1214,LIZARD BRANCH,DBL 12X8X63 RC CLVT -15 FT FILL,"A Open, no restriction",,1 Highway,5 Waterway
District 04,Grayson,37.425482402,-86.173025504,KYTC,KYTC,043B00064N,01,3,2019-01-25,5829.0,Fair,No,State,1960s,Rural Secondary,6,6,6,596.0,KY-1214,ROCK CREEK,61 FT-76 FT- 61 FT CONT. STEEL GIRDERS - 0 DEG SKEW,P Posted for load,,1 Highway,5 Waterway
District 04,Grayson,37.411200994,-86.161984144,KYTC,KYTC,043B00065N,01,3,2022-02-11,6383.0,Good,No,State,1960s,Rural Secondary,7,7,7,577.0,KY-1214,GRINDSTONE FORK CREEK,66.67 FT- 82.66 FT- 66.67 FT CONT. STEEL GIRDER SPANS -,P Posted for load,,1 Highway,5 Waterway
District 04,Grayson,37.428743762,-86.580831771,KYTC,KYTC,043B00033N,01,3,2022-06-08,3063.0,Fair,No,State,Over 75,State Secondary,5,6,5,550.0,US-62,P&L RAILWAY,3-38 FT R.C.D.G. SPANS,"A Open, no restriction",,1 Highway,2 Railroad
District 04,Grayson,37.535291414,-86.616005783,KYTC,KYTC,043B00071N,01,3,2022-06-08,2156.0,Fair,No,State,1950s,Rural Secondary,5,6,6,122.0,KY-878,MISTAKEN CREEK,3-30 FT R.C.D.G. SPANS - 0 DEG SKEW,P Posted for load,,1 Highway,5 Waterway
District 04,Grayson,37.538290814,-86.647566989,KYTC,CONTRACTOR,043B00072N,01,3,2017-10-18,1017.0,Fair,No,State,1950s,Rural Secondary,N,N,N,122.0,KY-878,BROWNS CREEK,DBL 12X6X41 RC CLVT -4 FT FILL,"A Open, no restriction",,1 Highway,5 Waterway
District 04,Grayson,37.459025596,-86.309603666,KYTC,KYTC,043B00073N,01,3,2022-10-31,5386.0,Fair,No,State,1960s,,5,7,5,117.0,MCDONALD RD,WESTERN KENTUCKY PARKWAY,,P Posted for load,27.0,1 Highway,1 Highway
District 04,Grayson,37.380315222,-86.453747457,KYTC,KYTC,043B00074N,01,3,2017-10-22,483.0,Fair,No,State,1950s,Supplemental Road,N,N,N,89.0,KY-1655,RAYMER CREEK,,"A Open, no restriction",,1 Highway,5 Waterway
District 04,Grayson,37.372050841,-86.471875142,KYTC,KYTC,043B00075N,01,3,2017-10-22,475.2,Good,No,State,1950s,Supplemental Road,N,N,N,89.0,KY-1655,ALDER CREEK,,"A Open, no restriction",,1 Highway,5 Waterway
District 04,Grayson,37.434727649,-86.164324407,KYTC,KYTC,043B00093N,01,3,2021-11-03,2450.0,Good,No,State,1970s,Rural Secondary,7,8,7,353.0,KY-3210,ROCK CREEK,1 94.67 FOOT SPAN-STEEL BUILT UP GIRDERS-CONCRETE DECK,"A Open, no restriction",,1 Highway,5 Waterway
District 04,Grayson,37.441386427,-86.551221217,KYTC,KYTC,043B00067N,01,3,2022-06-08,5158.0,Fair,No,State,1950s,Rural Secondary,6,5,6,316.0,KY-736,CANEY CREEK,,P Posted for load,,1 Highway,5 Waterway
District 04,Grayson,37.450390255,-86.561763009,KYTC,KYTC,043B00068N,01,3,2019-10-30,581.04,Fair,No,State,Over 75,Rural Secondary,N,N,N,316.0,KY-736,KIPER HOLLOW BRANCH,,"A Open, no restriction",,1 Highway,5 Waterway
District 04,Grayson,37.409913786,-86.538392125,KYTC,KYTC,043B00094N,01,3,2024-11-21,4698.0,Good,No,State,1990s,Rural Secondary,7,7,7,156.0,KY-736,Western KY Parkway,,"A Open, no restriction",,1 Highway,1 Highway
District 04,Grayson,37.497363797,-86.171969164,KYTC,KYTC,043B00095N,01,3,2023-06-27,4850.0,Good,No,State,2000s,,7,7,8,55.0,CROW HOLLOW RD,W.KY.PKWY @ MP 113.91,48 FT-53FT-53FT-48FT  21X48 BOX BEAMS SPANS- 0 DEG SKEW,"A Open, no restriction",,1 Highway,1 Highway
District 04,Grayson,37.408501101,-86.460720399,KYTC,KYTC,043B00096N,01,3,2023-06-27,4374.0,Good,No,State,2000s,,7,7,7,100.0,HIGGS RD,WESTERN KENTUCKY PARKWAY,,"A Open, no restriction",,1 Highway,1 Highway
District 04,Grayson,37.411276293,-86.485617983,KYTC,KYTC,043B00097N,01,3,2024-10-14,8719.0,Good,No,State,1960s,State Secondary,8,7,8,1590.0,KY-185,WESTERN KENTUCKY PARKWAY,,"A Open, no restriction",,1 Highway,1 Highway
District 04,Grayson,37.466132965,-86.292372921,KYTC,KYTC,043B00098N,01,3,2023-06-27,19381.0,Good,No,State,2000s,State Primary (Other),7,7,7,12247.0,KY-259,WESTERN KENTUCKY PARKWAY,48 - 733 - 36 SIMPLE SPANS TYPE III P.C.I. BEAMS,"A Open, no restriction",,1 Highway,1 Highway
District 04,Grayson,37.463388305,-86.291416923,KYTC,CONTRACTOR,043B00100N,01,3,2021-09-30,2411.0,Good,No,State,2000s,State Primary (Other),N,N,N,5260.0,KY-259,BRANCH OF TAYLORS FORK,DBL 12 X 8 X 84 RC BOX CULVERT 30 DEG 2 FILL,"A Open, no restriction",,1 Highway,5 Waterway
District 04,Grayson,37.507140891,-86.27206723,County,KYTC,043C00005N,02,3,2021-04-26,375.0,Fair,No,Local,1970s,,7,6,6,89.0,Beaver Dam Cr Rd.,BEAVER DAM CREEK,,P Posted for load,20.0,1 Highway,5 Waterway
District 04,Grayson,37.422911847,-86.610499711,County,KYTC,043C00017N,02,3,2022-10-21,4627.0,Fair,No,Local,1960s,,7,6,6,100.0,NEAFUS RD,CANEY CREEK,3 SIMPLE SPANS-CONCRETE TEE BEAM WITH CONCRETE DECK,P Posted for load,18.0,1 Highway,5 Waterway
District 04,Grayson,37.500191434,-86.455771683,County,KYTC,043C00029N,02,3,2017-11-03,627.82,Fair,No,Local,Over 75,,N,N,N,105.0,Sinks Rd.,Short Creek,DBL 14X7 RC CULVERT -3 FT FILL,"A Open, no restriction",,1 Highway,5 Waterway
District 04,Grayson,37.41913481,-86.405975078,County,KYTC,043C00032N,02,3,2022-04-25,429.0,Poor,No,Local,1970s,,5,6,4,28.0,PLEASANT VIEW RD,SOUTH FK.CANEY CREEK,1-23.5 FT. STEEL BEAM SPANS - CONC DECK,P Posted for load,10.0,1 Highway,5 Waterway
District 04,Grayson,37.486222902,-86.516387435,County,KYTC,043C00034N,02,3,2019-07-01,509.0,Fair,No,Local,1980s,,7,5,6,69.0,PINE KNOB RD,PINE KNOB CREEK,1-33 FT STEEL BEAM SPAN,P Posted for load,21.0,1 Highway,5 Waterway
District 04,Grayson,37.526552022,-86.260523893,County,KYTC,043C00035N,02,3,2024-04-26,560.0,Fair,No,Local,1990s,,7,6,7,158.0,KIPER RD,BEAVERDAM CREEK,1-34 FT PREST CONC DECK UNIT,"A Open, no restriction",,1 Highway,5 Waterway
District 04,Grayson,37.413509795,-86.474465158,County,KYTC,043C00036N,02,3,2024-04-26,512.0,Good,No,Local,1990s,,7,7,7,53.0,Blue Creek Road,ALDER CREEK,1-30.5 FT PREST CONC DECK UNIT,P Posted for load,36.0,1 Highway,5 Waterway
District 04,Grayson,37.534074432,-86.306291939,County,KYTC,043C00037N,02,3,2024-04-26,480.0,Good,No,Local,1990s,,8,7,8,83.0,HANGING ROCK CHURC,PETER CAVE CREEK TRIB,1-30 PREST CONC BOX BEAM SPAN,P Posted for load,37.0,1 Highway,5 Waterway
District 04,Grayson,37.385838,-86.505104,County,KYTC,043C00049N,02,3,2019-07-10,434.0,Fair,No,Local,1970s,,7,6,5,10.0,FARRIS COATS RD,BUCK CREEK,1-32 STEEL BEAM SPAN,P Posted for load,12.0,1 Highway,5 Waterway
District 04,Grayson,37.452763,-86.162751,County,KYTC,043C00050N,02,4,2025-05-08,508.0,Poor,No,Local,Over 75,,6,5,3,9.0,FRAGRANT RD,BRANCH - ROCK CREEK,1 - 42 PONY TRUSS,P Posted for load,3.0,1 Highway,5 Waterway
District 04,Green,37.382858262,-85.597321179,KYTC,KYTC,044B00006N,01,3,2022-10-31,7797.0,Fair,No,State,1960s,State Primary (Other),6,7,7,1664.0,KY-61,BIG BRUSH CREEK,65 FT-90 FT-65 FT CONT RCDG SPANS - 0 DEG SKEW,"A Open, no restriction",,1 Highway,5 Waterway
District 04,Green,37.219842594,-85.469387605,KYTC,KYTC,044B00008N,01,3,2025-07-17,851.0,Fair,No,State,Over 75,State Primary (Other),7,5,6,1785.0,KY-61,CLOVER LICK CREEK,1-34 FT R.C.D.G. SPAN,P Posted for load,,1 Highway,5 Waterway
District 04,Green,37.179645428,-85.428211925,KYTC,KYTC,044B00009N,01,3,2022-06-15,2114.0,Poor,No,State,Over 75,State Primary (Other),6,6,4,1212.0,KY-61,CANEY FORK,2-45 FT R.C.D.G. SPANS,P Posted for load,,1 Highway,5 Waterway
District 04,Green,37.254462333,-85.502843267,KYTC,KYTC,044B00010N,01,3,2019-01-03,23063.0,Fair,No,State,1950s,State Primary (Other),6,5,5,7775.0,US-68,GREEN RIVER,80-100-80 CONT;70-70-70 CONT;70-70-70 CONT RCDG UNITS,P Posted for load,,1 Highway,5 Waterway
District 04,Green,37.304907255,-85.527340654,KYTC,KYTC,044B00005N,01,3,2022-06-14,4452.0,Fair,No,State,Over 75,State Primary (Other),5,6,5,4135.0,KY-61,BIG PITMAN CREEK,4-40 FT CONCRETE DECK GIRDER SPANS,P Posted for load,,1 Highway,5 Waterway
District 04,Grayson,37.519947497,-86.271902939,County,KYTC,043C00048N,02,3,2012-10-18,619.0,Fair,No,Local,2000s,,6,6,6,89.0,Beaver Dam Cr Rd.,BEAVER DAM CREEK,1 - 35.5 STEEL BEAM SPAN WITH CONCRETE DECK,P Posted for load,20.0,1 Highway,5 Waterway
District 04,Green,37.22634056,-85.677533596,KYTC,KYTC,044B00016N,01,3,2022-06-20,6943.0,Fair,No,State,1950s,State Secondary,6,6,6,1220.0,KY-88,LITTLE BARREN RIVER,5-50 FT R.C.D.G. SPANS-0 DEG SKEW,P Posted for load,,1 Highway,5 Waterway
District 04,Green,37.263548614,-85.418451646,KYTC,KYTC,044B00020N,01,3,2019-10-30,1012.0,Good,No,State,1950s,Rural Secondary,N,N,N,160.0,KY-3098,MEADOW CREEK,TRIPLE 14 FT X 10 FT X 23 FT R.C. CULVERT-0 DEG1.5FILL,"A Open, no restriction",,1 Highway,5 Waterway
District 04,Green,37.320316208,-85.502562175,KYTC,KYTC,044B00021N,01,3,2022-06-21,2947.0,Good,No,State,1950s,Rural Secondary,7,7,7,173.0,KY-793,LITTLE PITMAN CREEK,3-35 FT R.C.D.G. SPANS-0 DEG SKEW,P Posted for load,,1 Highway,5 Waterway
District 04,Green,37.341257101,-85.508937115,KYTC,KYTC,044B00022N,01,3,2018-04-05,1163.0,Fair,No,State,1950s,Rural Secondary,N,N,N,289.0,KY-323,SAND LICK CREEK,TRIPLE 14 FT X 7 FT X 26.5 FT R.C. CULVERT-30 DEG SKEW,"A Open, no restriction",,1 Highway,5 Waterway
District 04,Green,37.196749055,-85.367979833,KYTC,KYTC,044B00024N,01,3,2019-10-30,650.0,Good,No,State,1950s,Rural Secondary,N,N,N,408.0,KY-1913,SUBLETT BRANCH,DOUBLE 10 FT X 4 FT X 31 FT R.C. CULVERT-45 DEG1.8FILL,"A Open, no restriction",,1 Highway,5 Waterway
District 04,Green,37.344700578,-85.623885901,KYTC,KYTC,044B00025N,01,3,2025-07-22,3730.0,Poor,No,State,1960s,Rural Secondary,6,6,4,629.0,KY-569,BIG BRUSH CREEK,3-45 FT R.C.D.G. SPANS,"A Open, no restriction",,1 Highway,5 Waterway
District 04,Green,37.159014262,-85.535508998,KYTC,KYTC,044B00030N,01,3,2022-10-10,525.0,Poor,No,State,1960s,Rural Secondary,4,5,4,647.0,KY-487,GREASY CREEK,1-22 FT STEEL I-BEAM SPAN-0 DEG SKEW,P Posted for load,,1 Highway,5 Waterway
District 04,Green,37.167870021,-85.470037764,KYTC,KYTC,044B00037N,01,3,2023-11-29,4600.0,Fair,No,State,1980s,Rural Secondary,6,7,7,94.0,KY-487,RUSSELL CREEK,73 - 73 - 53 FT. PREST. CONC. DECK UNIT,"A Open, no restriction",,1 Highway,5 Waterway
District 04,Green,37.245229454,-85.479955033,KYTC,KYTC,044B00038N,01,3,2023-06-27,7944.0,Good,No,State,1980s,Rural Secondary,7,7,7,1516.0,KY-417,GREEN RIVER,70-100-80 FT CONT PCIB SPANS,"A Open, no restriction",,1 Highway,5 Waterway
District 04,Green,37.425424478,-85.631090878,KYTC,KYTC,044B00039N,01,3,2019-10-30,2851.46,Good,No,State,1980s,State Primary (Other),N,N,N,1664.0,KY-61,BRUSHY CR BRANCH,TRI 14X5 BOX CULVERT  FILL=2.33,"A Open, no restriction",,1 Highway,5 Waterway
District 04,Green,37.352205963,-85.565612863,KYTC,CONTRACTOR,044B00040N,01,3,2021-09-22,2066.0,Fair,No,State,1990s,State Primary (Other),N,N,N,2665.0,KY-61,LITTLE BRUSH CREEK,DBL  16 X 12 FT RC BOX CULVERT,"A Open, no restriction",,1 Highway,5 Waterway
District 04,Green,37.377633245,-85.535478082,KYTC,KYTC,044B00041N,01,3,2024-10-08,1524.0,Fair,No,State,1990s,Rural Secondary,6,7,8,297.0,KY-569,LITTLE BRUSHY CREEK,1- 47      FT PRESTRESSED CONC-BOX      BEAM SPANS,"A Open, no restriction",,1 Highway,5 Waterway
District 04,Green,37.412862279,-85.622779671,KYTC,KYTC,044B00043N,01,3,2017-10-22,1062.16,Good,No,State,1990s,State Primary (Other),N,N,N,1664.0,KY-61,BRUSHY FORK CREEK,DOUBLE 12 X 6  RC BOX CULVERT 2' FILL HEIGHT,"A Open, no restriction",,1 Highway,5 Waterway
District 04,Green,37.196956515,-85.355942698,County,KYTC,044C00005N,02,3,2016-05-04,994.0,Good,No,Local,1950s,,N,N,N,62.0,CANEY VALLEY RD,CANEY FORK,DBL 14X5X36 RC CLVT -3 FT FILL,"A Open, no restriction",,1 Highway,5 Waterway
District 04,Green,37.193847246,-85.364524768,County,KYTC,044C00006N,02,3,2022-02-22,442.0,Fair,No,Local,1960s,,6,6,5,63.0,CANEY FORK RD,BR OF CANEY FORK,1-23.5 FT STEEL BEAM SPAN,P Posted for load,8.0,1 Highway,5 Waterway
District 04,Green,37.227570129,-85.506652608,County,KYTC,044C00011N,02,3,2024-09-12,936.0,Good,No,Local,1970s,,7,7,7,121.0,Hugh Paxton Rd. ,DRY BRANCH,1-25 FT PRESTRESSED CONCRETE BOX SPAN,"A Open, no restriction",,1 Highway,5 Waterway
District 04,Green,37.144262673,-85.583844322,County,KYTC,044C00012N,02,3,2022-04-29,1930.0,Poor,No,Local,Over 75,,5,4,4,220.0,LILETOWN RD,GREASY CREEK,3-28 FT STEEL BEAM SPANS,P Posted for load,12.0,1 Highway,5 Waterway
District 04,Green,37.427172693,-85.579123963,County,KYTC,044C00018N,02,3,2022-08-03,887.0,Fair,No,Local,1970s,,6,6,6,91.0,BIG BRUSH CRK,UPPER BRUSH CREEK,2-10 FT CONCRETE SLAB SPANS,P Posted for load,18.0,1 Highway,5 Waterway
District 04,Green,37.390973938,-85.610300735,KYTC,KYTC,044B00042N,01,3,2025-01-07,1998.0,Good,No,State,1990s,State Primary (Other),7,7,8,1664.0,KY-61,BRUSH CREEK,1- 46       FT PRESTRESSED CONC-   I      BEAM SPANS,"A Open, no restriction",,1 Highway,5 Waterway
District 04,Hardin,37.628846605,-85.871182478,County,KYTC,047C00026N,02,3,2021-12-29,729.0,Fair,No,Local,1970s,,5,7,6,,MUD SPLASH RD,E RHUDES CREEK,1-29.5 FT SPAN STEEL STRINGER BRIDGE,P Posted for load,16.0,1 Highway,5 Waterway
District 04,Hardin,37.555313225,-86.031744514,County,KYTC,047C00030N,02,3,2022-08-03,2775.0,Fair,No,Local,Over 100,,6,6,5,229.0,OLD KENTUCKY 84 RD,NOLIN RIVER,6 SPANS 13.7-12.7-15.1-128.0 STEEL TRUSS-14.8-12.5 FT,P Posted for load,7.0,1 Highway,5 Waterway
District 04,Hardin,37.626920711,-86.126148375,County,KYTC,047C00038N,02,3,2016-07-21,691.0,Fair,No,Local,1970s,,6,6,5,89.0,CANN SCHOOL LN,SUTZER CREEK,1-25.0 FT SPAN STEEL STRINGER BRIDGE,P Posted for load,14.0,1 Highway,5 Waterway
District 04,Hardin,37.687644548,-85.982259381,County,KYTC,047C00039N,02,3,2022-05-06,711.0,Fair,No,Local,Over 75,,5,5,5,100.0,CRISP RD,W RHUDES CREEK,1-29.8 FT SPAN STEEL STRINGER BRIDGE,P Posted for load,13.0,1 Highway,5 Waterway
District 04,Hardin,37.625891274,-85.905705334,County,KYTC,047C00016N,02,3,2021-05-18,836.0,Fair,No,Local,1970s,,6,6,5,539.0,GAITHER STATION RD,E RHUDES CREEK,1-37.5 FT SPAN STEEL STRINGER BRIDGE,P Posted for load,11.0,1 Highway,5 Waterway
District 04,Hardin,37.634124796,-86.205099633,County,KYTC,047C00045N,02,3,2024-09-12,3256.0,Fair,No,Local,1970s,,7,6,7,132.0,PIERCE MILL RD,ROUGH RIVER,2-30 & 1-74 FT PPC BOX BEAM SPANS,"A Open, no restriction",,1 Highway,5 Waterway
District 04,Hardin,37.523858621,-85.909972565,County,KYTC,047C00050N,02,3,2016-05-11,1021.0,Fair,No,Local,1980s,,6,5,6,414.0,HORSESHOE BND RD,DORSEY RUN,1-39 FT STEEL STRINGER SPANS - CONC DK. - 0 DEG,P Posted for load,23.0,1 Highway,5 Waterway
District 04,Hardin,37.69453509,-86.140097819,County,KYTC,047C00052N,02,3,2022-04-01,1536.0,Fair,No,Local,1980s,,6,6,5,287.0,CONSTANTINE RD,VERTRESS BRANCH,2-30 FT STEEL I BEAM SPAN,P Posted for load,30.0,1 Highway,5 Waterway
District 04,Hardin,37.574174885,-85.859866715,County,KYTC,047C00053N,02,3,2019-01-02,920.0,Fair,No,Local,1980s,,7,6,6,140.0,MACKEY RD,JACKSON BRANCH,1- 35 FT STEEL STRINGER  SPAN - CONC. DECK,P Posted for load,36.0,1 Highway,5 Waterway
District 04,Hardin,37.772499434,-85.88205685,County,KYTC,047C00056N,02,3,2022-05-27,324.0,Fair,No,Local,1980s,,7,6,5,22.0,MOUNT ZION RD,MILL CREEK,1-27 FT STEEL BEAM SPAN W/CONC DECK,"A Open, no restriction",,1 Highway,5 Waterway
District 04,Hardin,37.566128368,-86.172513591,County,KYTC,047C00058N,02,3,2022-05-11,2214.0,Poor,No,Local,1980s,,6,7,4,,SOLWAY MEETING RD,MEETING CREEK,3-38 FT STEEL STRINGER SPANS,P Posted for load,18.0,1 Highway,5 Waterway
District 04,Hardin,37.595573874,-85.835110877,County,KYTC,047C00059N,02,3,2016-05-12,775.0,Fair,No,Local,1980s,,7,6,6,98.0,HOWELL RD,PUP RUN,1-30 FT  STEEL STRINGER SPAN,P Posted for load,29.0,1 Highway,5 Waterway
District 04,Hardin,37.644125563,-86.204574133,County,KYTC,047C00060N,02,3,2021-05-24,779.0,Poor,No,Local,1980s,,6,6,4,40.0,PIERCE MILL RD,DRAKES CREEK,1-39.2 FT STEEL STRINGER SPAN,P Posted for load,17.0,1 Highway,5 Waterway
District 04,Hardin,37.972603075,-85.979988617,KYTC,CONTRACTOR,047B00008N,01,3,2021-09-22,2468.0,Fair,Yes,State,Over 75,State Primary (Other),N,N,N,19810.0,US-31W,TIOGA CREEK,TRP 8X8X190 R.C Culvert 8FT Fill,"A Open, no restriction",,1 Highway,5 Waterway
District 04,Hardin,37.757543544,-85.722323547,KYTC,KYTC,047B00024N,01,3,2016-08-04,598.0,Fair,No,State,Over 75,State Secondary,N,N,N,1865.0,US-62,BRANCH OFF ROLLING FORK,,"A Open, no restriction",,1 Highway,5 Waterway
District 04,Hardin,37.71120285,-85.834525274,KYTC,KYTC,047B00025N,01,3,2022-01-24,5711.0,Fair,No,State,1950s,State Primary (Other),N,N,N,25228.0,US-62,BUFFALO CREEK,DBL 16 X 7 X 173 - 6FT Fill,P Posted for load,,1 Highway,5 Waterway
District 04,Hardin,37.624032139,-85.800066295,KYTC,KYTC,047B00026N,01,3,2022-10-10,3733.0,Fair,No,State,1960s,Rural Secondary,6,5,6,2267.0,KY-210,MIDDLE CRK,3-35 FT R.C.D.G. SPANS- 15 DEG SKEW,P Posted for load,,1 Highway,5 Waterway
District 04,Hardin,37.518172191,-85.900259737,KYTC,KYTC,047B00010N,01,3,2019-10-30,739.0,Good,No,State,1950s,Rural Secondary,N,N,N,739.0,KY-720,DORSEY RUN,DBL 14X6X27 RC CLVT -2 FT FILL                       L,"A Open, no restriction",,1 Highway,5 Waterway
District 04,Hardin,37.707525598,-85.830594293,KYTC,CONTRACTOR,047B00011N,01,3,1901-01-01,4091.0,Good,Yes,State,1950s,State Primary (Interst.),N,N,N,60000.0,I-65,TOWN BRANCH,Single 16'X8'X379' with 23' Fill Height,"A Open, no restriction",,1 Highway,5 Waterway
District 04,Hardin,37.661822893,-85.834446683,KYTC,KYTC,047B00027N,01,3,2016-08-04,1243.0,Fair,No,State,1960s,Rural Secondary,N,N,N,6337.0,KY-210,UNNAMED STREAM,DBL 8X5X36 RC CLVT -3 FT FILL,"A Open, no restriction",,1 Highway,5 Waterway
District 04,Hardin,37.571508278,-86.037436023,KYTC,KYTC,047B00043N,01,3,2022-10-31,7130.0,Fair,No,State,1960s,State Secondary,6,7,6,1785.0,KY-84,WEST KENTUCKY PARKWAY,,P Posted for load,,1 Highway,1 Highway
District 04,Hardin,37.561692018,-86.036663619,KYTC,KYTC,047B00044N,01,3,2018-05-14,10624.0,Fair,No,State,1960s,State Secondary,6,6,6,1785.0,KY-84,NOLIN RIVER,5-50 FT & 1-70 FT SIMPLE STEEL COMP. SPANS - 0 DEG SKEW,"A Open, no restriction",,1 Highway,5 Waterway
District 04,Hardin,37.611349367,-85.930516411,KYTC,KYTC,047B00046N,01,3,2022-06-20,6448.0,Fair,No,State,1950s,Rural Secondary,5,6,5,1434.0,KY-222,VALLEY CREEK,,P Posted for load,,1 Highway,5 Waterway
District 04,Hart,37.368198655,-85.904320004,KYTC,KYTC,050B00001N,01,3,2019-11-05,1139.0,Fair,No,State,Over 75,State Secondary,N,N,N,2262.0,US-31W,BRANCH OF BACON CREEK,DBL 9X8X45 RC CLVT -2 FT FILL,"A Open, no restriction",,1 Highway,5 Waterway
District 04,Hart,37.319220189,-85.763640562,KYTC,KYTC,050B00002N,01,3,2019-02-25,28308.0,Fair,No,State,Over 75,State Secondary,7,6,6,1573.0,US-31E,GREEN RIVER,2-259CONT P G.UNTS(6-86SPNS)(92-132-92)CONT PG UNIT,P Posted for load,,1 Highway,5 Waterway
District 04,Hart,37.2685412,-85.885171766,KYTC,KYTC,050B00004N,01,3,2019-03-20,45795.0,Fair,No,State,Over 75,State Secondary,5,5,5,8755.0,US-31W,GREEN RIVER,"1-200 FT STEEL DECK TRUSS, 7-148 FT STEEL DECK TRUSSES","A Open, no restriction",,1 Highway,5 Waterway
District 04,Hardin,37.629498254,-85.887457442,KYTC,KYTC,047B00054N,01,3,2022-02-08,498.0,Good,No,State,1960s,Rural Secondary,N,N,N,1823.0,KY-1136,E RHUDES CREEK,,"A Open, no restriction",,1 Highway,5 Waterway
District 04,Hardin,37.694175844,-86.131159448,KYTC,KYTC,047B00059N,01,3,2022-07-01,3703.0,Fair,No,State,Over 75,State Secondary,5,5,5,1858.0,KY-86,ROUGH RIVER,,P Posted for load,,1 Highway,5 Waterway
District 04,Hardin,37.713156147,-86.163038178,KYTC,KYTC,047B00060N,01,3,2022-07-01,2323.0,Poor,No,State,Over 75,State Secondary,5,4,4,1858.0,KY-86,VERTRESS CREEK,,P Posted for load,,1 Highway,5 Waterway
District 04,Hardin,37.629602003,-86.188698999,KYTC,KYTC,047B00078N,01,3,2024-11-12,2184.0,Fair,No,State,1960s,Rural Secondary,7,6,7,376.0,KY-920,LINDERS CREEK,,"A Open, no restriction",,1 Highway,5 Waterway
District 04,Hart,37.33853807,-86.127425777,KYTC,KYTC,050B00007N,01,3,2019-01-02,16127.0,Fair,No,State,1960s,State Secondary,6,6,6,1521.0,KY-88,NOLIN RIVER LAKE,122 FT- 153 FT- 153 FT- 122 FT CONT. STEEL GIRDER UNIT,"A Open, no restriction",,1 Highway,5 Waterway
District 04,Hart,37.315602409,-85.842718624,KYTC,KYTC,050B00023N,01,3,2023-08-07,728.0,Poor,No,State,1970s,Rural Secondary,5,7,4,147.0,KY-569,BOILING SPRING HOLLOW,1-30 FT. PPCDU SPAN,P Posted for load,14.0,1 Highway,5 Waterway
District 04,Hart,37.340270217,-85.960474139,KYTC,KYTC,050B00024N,01,3,2017-08-03,792.16,Good,No,State,1950s,Rural Secondary,N,N,N,934.0,KY-1140,RAIDER HOLLOW,TRPL 12X7X28 RC CLVT -1 FT FILL,"A Open, no restriction",,1 Highway,5 Waterway
District 04,Hart,37.349737098,-85.965838898,KYTC,KYTC,050B00025N,01,3,2024-12-02,6028.0,Fair,No,State,1960s,Rural Secondary,6,6,6,934.0,KY-1140,BACON CREEK,"1-19 FT, 8-25 FT, 1-19 FT CONTINOUS R.C.  SLAB - 0 DEG",P Posted for load,15.0,1 Highway,5 Waterway
District 04,Hart,37.409969775,-86.002330038,KYTC,KYTC,050B00026N,01,3,2025-08-26,3638.0,Fair,No,State,1960s,Rural Secondary,6,7,6,464.0,KY-1140,ROUNDSTONE CREEK,3-40 FT R.C.D.G. SPANS - 0 DEG SKEW,"A Open, no restriction",,1 Highway,5 Waterway
District 04,Hardin,37.621008705,-85.984260306,KYTC,KYTC,047B00086N,01,3,2019-10-30,1168.0,Fair,No,State,1950s,Rural Secondary,N,N,N,802.0,KY-1375,UNNAME STREAM,,"A Open, no restriction",,1 Highway,5 Waterway
District 04,Hardin,37.752560649,-86.09446408,KYTC,KYTC,047B00080N,01,3,2019-11-08,638.0,Good,No,State,Over 75,Rural Secondary,8,7,8,80.0,KY-220,MARTINS BRANCH CREEK,,"A Open, no restriction",,1 Highway,5 Waterway
District 04,Hardin,37.715403853,-86.093629566,KYTC,KYTC,047B00083N,01,3,2018-07-27,2376.0,Fair,No,State,1950s,Rural Secondary,6,6,6,535.0,KY-1357,ROUGH RIVER,,P Posted for load,,1 Highway,5 Waterway
District 04,Hardin,37.597840358,-85.979220979,KYTC,KYTC,047B00088N,01,3,2022-10-31,5568.0,Fair,No,State,1960s,Rural Secondary,6,6,6,802.0,KY-1375,NOLIN RIVER AT STAR MILL,,P Posted for load,,1 Highway,5 Waterway
District 04,Hardin,37.645150355,-85.915053852,KYTC,KYTC,047B00090N,01,3,2022-10-31,7695.0,Poor,No,State,1960s,Rural Secondary,4,6,4,859.0,KY-1904,WESTERN KENTUCKY PARKWAY,,P Posted for load,,1 Highway,1 Highway
District 04,Hardin,37.632060729,-85.925623999,KYTC,KYTC,047B00091N,01,3,2025-07-17,2953.0,Fair,No,State,1960s,Rural Secondary,7,6,7,859.0,KY-1904,W RHUDES CREEK,,P Posted for load,,1 Highway,5 Waterway
District 04,Hardin,37.649127477,-85.902716884,KYTC,KYTC,047B00092L,01,3,2022-07-01,5709.0,Fair,Yes,State,1960s,State Primary (Parkway),7,5,6,7091.0,WESTERN KENTUCKY P,CSX RR-GAITHER STA. RD,,"A Open, no restriction",,1 Highway,4 Highway-railroad
District 04,Hardin,37.679376884,-85.86120309,KYTC,KYTC,047B00108L,01,3,2020-09-24,11960.0,Good,Yes,State,1970s,State Primary (Other),7,7,7,12090.0,US-31WB,WESTERN KENTUCKY PARKWAY,56-69-56-44 FT CONT PCIB SPANS                       SK,"A Open, no restriction",,1 Highway,1 Highway
District 04,Hardin,37.717783581,-85.882281511,KYTC,KYTC,047B00109N,01,3,2025-05-09,8803.0,Fair,No,State,1970s,,5,7,7,4840.0,WOODLAND DR,US 31W BYPASS @ 3.589,46-73-73-54 FT CONT PCIB SPANS,"A Open, no restriction",,1 Highway,1 Highway
District 04,Hardin,37.878459727,-85.965589922,KYTC,KYTC,047B00111N,01,3,2022-09-07,19198.0,Fair,No,State,1970s,State Secondary,5,6,7,7563.0,KY-361 (Bullion),US 31W,,"A Open, no restriction",,1 Highway,1 Highway
District 04,Hardin,37.892792266,-85.974198266,KYTC,KYTC,047B00112N,01,3,2025-03-18,17987.0,Good,Yes,State,1970s,State Primary (Other),7,7,7,12066.0,US-31W,CHAFFEE AVENUE,,"A Open, no restriction",,1 Highway,1 Highway
District 04,Hardin,37.891990356,-85.975355191,KYTC,KYTC,047B00115N,01,3,2016-05-04,1341.47,Good,No,State,1970s,State Secondary,N,N,N,3066.0,DIXIE HIGHWAY RAMP,DRY BRANCH,DBL 12'x5'x115' culvert-12' fill height,"A Open, no restriction",,1 Highway,5 Waterway
District 04,Hart,37.374951236,-85.902711519,KYTC,KYTC,050B00035N,01,3,2022-09-22,3480.0,Fair,No,State,Over 75,State Secondary,6,6,6,2262.0,US-31W,BACON CREEK,3-40 FT R.C.D.G. SPANS,"A Open, no restriction",,1 Highway,5 Waterway
District 04,Hart,37.402513207,-85.839311195,KYTC,KYTC,050B00036N,01,3,2022-09-22,3715.0,Fair,No,State,1970s,Rural Secondary,6,7,6,448.0,KY-728,BACON CREEK,3-43 FT RCDG SPANS-CONC FLOOR,"A Open, no restriction",,1 Highway,5 Waterway
District 04,Hart,37.444191981,-86.050482235,KYTC,KYTC,050B00038N,01,3,2022-11-08,11681.0,Fair,No,State,1970s,State Secondary,6,6,7,1392.0,KY-224,NOLIN RIVER,80-105-102 FT CONT PREST BOX GIRDER SPANS-30 DEG SKEW,"A Open, no restriction",,1 Highway,5 Waterway
District 04,Hart,37.165850438,-85.802420257,KYTC,KYTC,050B00040N,01,3,2023-06-27,4451.0,Fair,No,State,1980s,State Secondary,5,6,5,2861.0,KY-218,BLUE SPRINGS CREEK,30-40-30 FT TYPE 1 PCIB SPANS,"A Open, no restriction",,1 Highway,5 Waterway
District 04,Hart,37.416105239,-85.958149151,KYTC,KYTC,050B00041N,01,3,2025-08-26,2376.0,Fair,No,State,1950s,Rural Secondary,7,6,7,201.0,KY-1391,ROUND STONE CREEK,3-SPANS 31.3-31.6 AND 32.3 FT CONCRETE TEE BEAMS,P Posted for load,,1 Highway,5 Waterway
District 04,Hart,37.320594707,-85.714537369,KYTC,KYTC,050B00042N,01,3,2016-05-05,662.43,Good,No,State,1980s,Rural Secondary,N,N,N,135.0,KY-566,LYNN CAMP CREEK,DOUBLE  16 X 10 X 124 RC  BOX CULVERT,"A Open, no restriction",,1 Highway,5 Waterway
District 04,Hardin,37.785106285,-85.772231489,KYTC,KYTC,047B00118L,01,3,2025-06-23,7125.0,Good,Yes,State,1980s,State Primary (Interst.),7,7,7,25853.0,I-65,COLESBURG ROAD,-1,"A Open, no restriction",,1 Highway,1 Highway
District 04,Hardin,37.702757287,-85.83355769,KYTC,KYTC,047B00128R,01,3,2024-09-04,11363.0,Fair,Yes,State,1980s,State Primary (Parkway),6,6,7,7281.0,Bluegrass Parkway,I-65,,"A Open, no restriction",,1 Highway,1 Highway
District 04,Hardin,37.687246616,-85.842671616,KYTC,KYTC,047B00129L,01,3,2020-09-24,6915.0,Fair,Yes,State,1980s,State Primary (Interst.),6,7,7,34429.0,INTERSTATE 65 NC,SPRINGFIELD ROAD,,"A Open, no restriction",,1 Highway,1 Highway
District 04,Hardin,37.582769677,-85.920551805,KYTC,KYTC,047B00116N,01,3,2025-09-10,8314.0,Fair,No,State,1970s,Rural Secondary,5,7,7,427.0,KY-1868,NOLIN RIVER,,"A Open, no restriction",,1 Highway,5 Waterway
District 04,Hardin,37.713883059,-85.829324417,KYTC,KYTC,047B00130L,01,3,2018-09-25,16192.0,Fair,No,State,1980s,State Secondary,6,7,6,4459.0,U.S. 62,I-65,,"A Open, no restriction",,1 Highway,1 Highway
District 04,Hardin,37.713687916,-85.829366563,KYTC,KYTC,047B00130R,01,3,2018-09-25,16192.0,Fair,No,State,1980s,State Secondary,6,7,6,4459.0,US-62,I-65,,"A Open, no restriction",,1 Highway,1 Highway
District 04,Hart,37.242092921,-85.8930556,KYTC,KYTC,050B00043N,01,3,2022-08-03,1333.0,Fair,No,State,Over 75,Rural Secondary,6,5,5,648.0,KY-335,CSX RAILROAD,1 - 49 RCDG SPAN,P Posted for load,22.0,1 Highway,2 Railroad
District 04,Hardin,37.611804729,-85.801075387,KYTC,KYTC,047B00131R,01,3,2020-09-24,3965.0,Good,No,State,1980s,State Primary (Other),7,8,8,6087.0,KY-61,MIDDLE CREEK RELIEF,1-80 FT P.C.I.B. SPAN,"A Open, no restriction",,1 Highway,5 Waterway
District 04,Hardin,37.67789443,-85.847194064,KYTC,KYTC,047B00132L,01,3,2018-11-21,12955.0,Fair,Yes,State,1980s,State Primary (Interst.),7,6,7,34429.0,I-65 SB / 31W,US 31W,,"A Open, no restriction",,1 Highway,1 Highway
District 04,Hardin,37.813315325,-85.739030947,KYTC,KYTC,047B00133L,01,3,2021-06-02,33394.0,Fair,Yes,State,1980s,State Primary (Interst.),6,6,5,31464.0,INTERSTATE 65 NC,ROLLING FORK RIVER,,P Posted for load,,1 Highway,5 Waterway
